$GPRMC,151036.00,A,4836.10067,N,00948.67109,E,0.043,,120715,,,A*72
$GPRMC,151038.000,A,4836.1013,N,00948.6714,E,0.04,0.00,120715,,*02
$GPGGA,151038,4836.1013,N,00948.6714,E,1,09,1.3,679.3,M,47.7,M,,*43
$PGRMZ,2230.0,f,2*37
$PITV5,0.0,360.0,1.031,0.00,0,0.40*32
$GPGGA,151036.00,4836.10067,N,00948.67109,E,1,10,1.06,682.6,M,47.7,M,,*51
$GPGSA,A,3,29,19,22,26,27,20,18,31,21,16,,,1.78,1.06,1.42*03
$PFLAU,0,1,1,1,0,,0,,,*4F
$PITV3,-13.0,-4.0,258.9,3.03,1.01*1A
$PITV4,-0.01,0.59,-0.41,627.4,629.1,629.1*10
$PGRMZ,2093,F,2*02
$PITV3,-13.1,-4.0,258.9,3.04,1.01*1C
$PITV4,0.00,0.61,-0.39,627.5,629.3,629.1*3B
$PITV3,-13.1,-4.0,258.9,3.03,1.01*1B
$PITV4,0.00,0.61,-0.39,627.5,629.5,629.1*3D
$PITV3,-13.1,-4.0,258.9,2.99,1.01*19
$PITV4,0.01,0.61,-0.39,627.4,628.8,629.1*31
$GPRMC,151039.000,A,4836.1013,N,00948.6714,E,0.06,0.00,120715,,*01
$GPGGA,151039,4836.1013,N,00948.6714,E,1,09,1.3,679.2,M,47.7,M,,*43
$PGRMZ,2229.5,f,2*3A
$PITV5,0.0,360.0,1.031,0.00,0,0.40*32
$GPRMC,151037.00,A,4836.10064,N,00948.67108,E,0.165,,120715,,,A*74
$GPGGA,151037.00,4836.10064,N,00948.67108,E,1,10,1.06,682.7,M,47.7,M,,*53
$GPGSA,A,3,29,19,22,26,27,20,18,31,21,16,,,1.78,1.06,1.42*03
$PITV3,-13.1,-4.0,258.8,2.98,1.01*19
$PITV4,-0.00,0.61,-0.39,627.4,629.1,629.1*15
$PFLAU,0,1,1,1,0,,0,,,*4F
$PGRMZ,2096,F,2*07
$PITV3,-13.1,-4.0,258.9,3.03,1.01*1B
$PITV4,-0.01,0.60,-0.40,627.4,629.0,629.1*1A
$PITV3,-13.1,-4.0,258.9,3.10,1.01*19
$PITV4,-0.00,0.61,-0.39,627.7,629.6,629.1*11
$PITV3,-13.1,-4.0,258.9,3.10,1.01*19
$PITV4,0.03,0.64,-0.36,627.5,629.5,629.2*37
$GPRMC,151038.00,A,4836.10062,N,00948.67105,E,0.127,,120715,,,A*76
$GPRMC,151040.000,A,4836.1013,N,00948.6714,E,0.00,0.00,120715,,*09
$GPGGA,151040,4836.1013,N,00948.6714,E,1,09,1.3,679.1,M,47.7,M,,*4E
$PGRMZ,2229.1,f,2*3E
$PITV5,0.0,360.0,1.031,0.00,0,0.40*32
$GPGGA,151038.00,4836.10062,N,00948.67105,E,1,10,1.06,682.7,M,47.7,M,,*57
$GPGSA,A,3,29,19,22,26,27,20,18,31,21,16,,,1.78,1.06,1.42*03
$PFLAU,0,1,1,1,0,,0,,,*4F
$PITV3,-13.0,-3.8,258.9,3.01,1.01*17
$PITV4,0.07,0.67,-0.33,627.5,629.1,629.2*31
$PGRMZ,2096,F,2*07
$PITV3,-13.0,-3.8,258.9,3.03,1.01*15
$PITV4,0.07,0.67,-0.33,627.4,629.1,629.2*30
$PITV3,-13.0,-3.8,258.9,3.03,1.01*15
$PITV4,0.07,0.68,-0.32,627.5,629.2,629.2*3C
$PITV3,-13.1,-3.8,259.0,3.09,1.01*16
$PITV4,0.09,0.69,-0.31,627.4,629.0,629.3*32
$GPRMC,151041.000,A,4836.1013,N,00948.6713,E,0.02,0.00,120715,,*0D
$GPGGA,151041,4836.1013,N,00948.6713,E,1,09,1.3,679.1,M,47.7,M,,*48
$PGRMZ,2228.9,f,2*37
$PITV5,0.0,360.0,1.031,0.00,0,0.40*32
$GPRMC,151039.00,A,4836.10062,N,00948.67105,E,0.019,,120715,,,A*7B
$GPGGA,151039.00,4836.10062,N,00948.67105,E,1,09,1.06,682.7,M,47.7,M,,*5E
$GPGSA,A,3,29,22,26,27,20,18,31,21,16,,,,1.78,1.06,1.42*0B
$PITV3,-13.2,-3.9,259.0,3.02,1.01*1F
$PITV4,0.10,0.70,-0.30,627.5,629.1,629.3*33
$PFLAU,0,1,1,1,0,,0,,,*4F
$PGRMZ,2096,F,2*07
$PITV3,-13.2,-3.9,259.0,3.01,1.01*1C
$PITV4,0.09,0.70,-0.30,627.6,629.4,629.3*3D
$PITV3,-13.2,-3.9,259.0,2.91,1.01*14
$PITV4,0.06,0.67,-0.33,627.5,628.9,629.2*39
$PITV3,-13.1,-3.7,258.9,2.85,1.01*14
$PITV4,0.01,0.62,-0.38,627.6,629.2,629.2*39
$GPRMC,151040.00,A,4836.10063,N,00948.67107,E,0.098,,120715,,,A*7F
$GPRMC,151042.000,A,4836.1013,N,00948.6714,E,0.02,0.00,120715,,*09
$GPGGA,151042,4836.1013,N,00948.6714,E,1,09,1.3,679.1,M,47.7,M,,*4C
$PGRMZ,2228.5,f,2*3B
$GPGGA,151040.00,4836.10063,N,00948.67107,E,1,09,1.06,682.6,M,47.7,M,,*52
$PITV5,0.0,360.0,1.031,0.00,0,0.40*32
$GPGSA,A,3,29,22,26,27,20,18,31,21,16,,,,1.78,1.06,1.42*0B
$PFLAU,0,1,1,1,0,,0,,,*4F
$PITV3,-13.1,-3.8,258.9,2.91,1.01*1E
$PITV4,-0.05,0.55,-0.45,627.4,629.0,629.1*1D
$PGRMZ,2096,F,2*07
$PITV3,-13.0,-3.8,258.9,2.90,1.01*1E
$PITV4,-0.09,0.51,-0.49,627.4,629.0,629.1*19
$PITV3,-13.1,-3.9,258.9,2.82,1.01*1D
$PITV4,-0.13,0.47,-0.53,627.4,628.8,629.0*16
$PITV3,-13.0,-3.8,258.9,2.86,1.01*19
$PITV4,-0.16,0.45,-0.55,627.4,629.0,629.0*1E
$GPRMC,151041.00,A,4836.10067,N,00948.67109,E,0.055,,120715,,,A*75
$GPGGA,151041.00,4836.10067,N,00948.67109,E,1,09,1.06,682.5,M,47.7,M,,*5A
$GPGSA,A,3,29,22,26,27,20,18,31,21,16,,,,1.78,1.06,1.42*0B
$GPRMC,151043.000,A,4836.1013,N,00948.6714,E,0.04,0.00,120715,,*0E
$GPGGA,151043,4836.1013,N,00948.6714,E,1,09,1.3,679.2,M,47.7,M,,*4E
$PGRMZ,2227.9,f,2*38
$PFLAU,0,1,1,1,0,,0,,,*4F
$PITV5,0.0,360.0,1.031,0.00,0,0.40*32
$PGRMZ,2096,F,2*07
$PITV3,-13.1,-3.8,258.9,2.93,1.01*1C
$PITV4,-0.15,0.46,-0.54,627.4,629.0,629.0*1F
$PITV3,-13.0,-3.7,258.9,2.92,1.01*13
$PITV4,-0.12,0.49,-0.51,627.2,628.7,629.0*12
$PITV3,-13.0,-3.7,258.9,2.96,1.01*17
$PITV4,-0.08,0.52,-0.48,627.2,628.7,629.0*1B
$PITV3,-13.1,-3.8,258.9,2.98,1.01*17
$PITV4,-0.06,0.55,-0.45,627.4,629.2,629.0*1D
$GPRMC,151042.00,A,4836.10069,N,00948.67108,E,0.178,,120715,,,A*77
$GPRMC,151044.000,A,4836.1013,N,00948.6714,E,0.04,0.00,120715,,*09
$GPGGA,151044,4836.1013,N,00948.6714,E,1,09,1.3,679.3,M,47.7,M,,*48
$PGRMZ,2227.8,f,2*39
$GPGGA,151042.00,4836.10069,N,00948.67108,E,1,09,1.06,682.3,M,47.7,M,,*50
$PITV5,0.0,360.0,1.031,0.00,0,0.40*32
$GPGSA,A,3,29,22,26,27,20,18,31,21,16,,,,1.78,1.06,1.42*0B
$PFLAU,0,1,1,1,0,,0,,,*4F
$PITV3,-13.0,-3.7,258.9,3.00,1.01*19
$PITV4,-0.03,0.57,-0.43,627.6,629.3,629.0*1F
$PGRMZ,2096,F,2*07
$PITV3,-13.0,-3.8,259.0,3.02,1.01*1C
$PITV4,0.00,0.61,-0.39,627.6,629.4,629.1*3F
$PITV3,-13.1,-4.0,259.0,2.92,1.01*1A
$PITV4,0.04,0.65,-0.35,627.3,628.6,629.1*35
$PITV3,-13.0,-3.9,259.0,2.81,1.01*17
$PITV4,0.04,0.65,-0.35,627.3,628.7,629.0*35
$GPRMC,151043.00,A,4836.10071,N,00948.67107,E,0.037,,120715,,,A*7A
$GPGGA,151043.00,4836.10071,N,00948.67107,E,1,09,1.06,682.2,M,47.7,M,,*56
$GPGSA,A,3,29,22,26,27,20,18,31,21,16,,,,1.78,1.06,1.42*0B
$GPRMC,151045.000,A,4836.1013,N,00948.6714,E,0.02,0.00,120715,,*0E
$GPGGA,151045,4836.1013,N,00948.6714,E,1,09,1.3,679.4,M,47.7,M,,*4E
$PGRMZ,2227.9,f,2*38
$PITV5,0.0,360.0,1.031,0.00,0,0.40*32
$PFLAU,0,1,1,1,0,,0,,,*4F
$PGRMZ,2096,F,2*07
$PITV3,-13.0,-3.9,259.0,2.77,1.01*1E
$PITV4,0.01,0.62,-0.38,627.3,628.5,629.0*38
$PITV3,-13.1,-4.0,259.1,2.78,1.01*1F
$PITV4,-0.02,0.58,-0.42,627.5,629.0,629.0*10
$PITV3,-13.1,-4.0,259.1,2.79,1.01*1E
$PITV4,-0.04,0.56,-0.44,627.5,629.1,629.0*1F
$PITV3,-13.0,-3.9,259.1,2.74,1.01*1C
$PITV4,-0.05,0.55,-0.45,627.4,628.8,629.0*15
$GPRMC,151046.000,A,4836.1013,N,00948.6714,E,0.04,0.00,120715,,*0B
$GPGGA,151046,4836.1013,N,00948.6714,E,1,09,1.3,679.5,M,47.7,M,,*4C
$PGRMZ,2228.1,f,2*3F
$PITV5,0.0,360.0,1.031,0.00,0,0.40*32
$GPRMC,151044.00,A,4836.10069,N,00948.67113,E,0.215,,120715,,,A*73
$GPGGA,151044.00,4836.10069,N,00948.67113,E,1,09,1.06,682.2,M,47.7,M,,*5D
$GPGSA,A,3,29,22,26,27,20,18,31,21,16,,,,1.78,1.06,1.42*0B
$PITV3,-13.0,-3.8,259.1,2.73,1.01*1A
$PITV4,-0.06,0.54,-0.46,627.5,629.1,629.0*1D
$PFLAU,0,1,1,1,0,,0,,,*4F
$PGRMZ,2096,F,2*07
$PITV3,-13.0,-3.8,259.1,2.72,1.01*1B
$PITV4,-0.06,0.55,-0.45,627.4,629.0,629.0*1F
$PITV3,-12.9,-3.7,259.1,2.71,1.01*1F
$PITV4,-0.05,0.56,-0.44,627.6,629.3,629.0*1F
$PITV3,-12.9,-3.6,259.0,2.72,1.01*1C
$PITV4,-0.03,0.58,-0.42,627.5,629.0,629.0*11
$GPRMC,151047.000,A,4836.1011,N,00948.6714,E,0.06,0.00,120715,,*0A
$GPGGA,151047,4836.1011,N,00948.6714,E,1,09,1.3,679.7,M,47.7,M,,*4D
$PGRMZ,2228.5,f,2*3B
$PITV5,0.0,360.0,1.031,0.00,0,0.40*32
$GPRMC,151045.00,A,4836.10070,N,00948.67116,E,0.178,,120715,,,A*77
$GPGGA,151045.00,4836.10070,N,00948.67116,E,1,09,1.06,682.2,M,47.7,M,,*51
$GPGSA,A,3,29,22,26,27,20,18,31,21,16,,,,1.78,1.06,1.42*0B
$PITV3,-12.9,-3.6,259.1,2.65,1.01*1B
$PITV4,-0.01,0.59,-0.41,627.2,628.5,628.9*1A
$PFLAU,0,1,1,1,0,,0,,,*4F
$PGRMZ,2096,F,2*07
$PITV3,-13.0,-3.8,259.1,2.62,1.01*1A
$PITV4,-0.03,0.58,-0.42,627.3,628.7,628.9*19
$PITV3,-12.9,-3.7,259.1,2.65,1.01*1A
$PITV4,-0.05,0.56,-0.44,627.4,628.9,628.9*1E
$PITV3,-12.9,-3.6,259.1,2.69,1.01*17
$PITV4,-0.04,0.57,-0.43,627.5,629.1,628.9*11
$GPRMC,151048.000,A,4836.1011,N,00948.6715,E,0.04,0.00,120715,,*06
$GPGGA,151048,4836.1011,N,00948.6715,E,1,09,1.3,679.8,M,47.7,M,,*4C
$PGRMZ,2228.9,f,2*37
$PITV5,0.0,360.0,1.031,0.00,0,0.40*32
$GPRMC,151046.00,A,4836.10072,N,00948.67113,E,0.056,,120715,,,A*7E
$GPGGA,151046.00,4836.10072,N,00948.67113,E,1,09,1.06,682.2,M,47.7,M,,*55
$GPGSA,A,3,29,22,26,27,20,18,31,21,16,,,,1.78,1.06,1.42*0B
$PITV3,-12.9,-3.6,259.1,2.57,1.01*1A
$PFLAU,0,1,1,1,0,,0,,,*4F
$PITV4,-0.03,0.58,-0.42,627.4,628.7,628.9*1E
$PGRMZ,2093,F,2*02
$PITV3,-12.9,-3.6,259.1,2.62,1.01*1C
$PITV4,-0.03,0.57,-0.43,627.4,628.7,628.9*10
$PITV3,-12.9,-3.6,259.0,2.48,1.01*15
$PITV4,-0.04,0.56,-0.44,627.3,628.7,628.9*16
$PITV3,-12.9,-3.5,259.0,2.46,1.01*18
$PITV4,-0.07,0.53,-0.47,627.4,628.6,628.8*14
$GPRMC,151047.00,A,4836.10072,N,00948.67114,E,0.178,,120715,,,A*75
$GPRMC,151049.000,A,4836.1011,N,00948.6715,E,0.08,0.00,120715,,*0B
$GPGGA,151049,4836.1011,N,00948.6715,E,1,09,1.3,680.0,M,47.7,M,,*43
$PGRMZ,2229.2,f,2*3D
$PITV5,0.0,360.0,1.031,0.00,0,0.40*32
$GPGGA,151047.00,4836.10072,N,00948.67114,E,1,09,1.06,682.2,M,47.7,M,,*53
$GPGSA,A,3,29,22,26,27,20,18,31,21,16,,,,1.78,1.06,1.42*0B
$PFLAU,0,1,1,1,0,,0,,,*4F
$PITV3,-13.0,-3.8,259.1,2.49,1.01*13
$PITV4,-0.11,0.49,-0.51,627.4,628.7,628.8*1E
$PGRMZ,2096,F,2*07
$PITV3,-13.0,-3.7,259.1,2.43,1.01*16
$PITV4,-0.12,0.49,-0.52,627.2,628.5,628.8*1A
$PITV3,-13.0,-3.7,259.2,2.53,1.01*14
$PITV4,-0.12,0.49,-0.51,627.5,629.1,628.8*1B
$PITV3,-13.1,-3.8,259.2,2.59,1.01*10
$PITV4,-0.09,0.52,-0.48,627.3,628.8,628.8*1D
$GPRMC,151050.000,A,4836.1011,N,00948.6716,E,0.10,0.00,120715,,*09
$GPRMC,151048.00,A,4836.10071,N,00948.67117,E,0.102,,120715,,,A*77
$GPGGA,151050,4836.1011,N,00948.6716,E,1,09,1.3,680.1,M,47.7,M,,*49
$PGRMZ,2229.6,f,2*39
$PITV5,0.0,360.0,1.031,0.00,0,0.40*32
$GPGGA,151048.00,4836.10071,N,00948.67117,E,1,09,1.06,682.2,M,47.7,M,,*5C
$GPGSA,A,3,29,22,26,27,20,18,31,21,16,,,,1.78,1.06,1.42*0B
$PFLAU,0,1,1,1,0,,0,,,*4F
$PITV3,-13.1,-3.9,259.2,2.48,1.01*11
$PITV4,-0.06,0.55,-0.45,627.3,628.6,628.8*16
$PGRMZ,2093,F,2*02
$PITV3,-13.0,-3.7,259.2,2.47,1.01*11
$PITV4,-0.04,0.56,-0.44,627.5,628.9,628.8*1F
$PITV3,-13.0,-3.7,259.1,2.47,1.01*12
$PITV4,-0.03,0.58,-0.42,627.2,628.3,628.8*1D
$PITV3,-13.0,-3.7,259.1,2.49,1.01*1C
$PITV4,-0.02,0.58,-0.42,627.4,628.8,628.7*1E
$GPRMC,151049.00,A,4836.10074,N,00948.67117,E,0.051,,120715,,,A*74
$GPRMC,151051.000,A,4836.1011,N,00948.6716,E,0.02,0.00,120715,,*0B
$GPGGA,151051,4836.1011,N,00948.6716,E,1,09,1.3,680.1,M,47.7,M,,*48
$PGRMZ,2230.1,f,2*36
$PITV5,0.0,360.0,1.031,0.00,0,0.40*32
$GPGGA,151049.00,4836.10074,N,00948.67117,E,1,09,1.06,682.1,M,47.7,M,,*5B
$GPGSA,A,3,29,22,26,27,20,18,31,21,16,,,,1.78,1.06,1.42*0B
$PFLAU,0,1,1,1,0,,0,,,*4F
$PITV3,-13.0,-3.7,259.2,2.50,1.01*17
$PITV4,-0.03,0.58,-0.42,627.5,629.1,628.7*16
$PGRMZ,2093,F,2*02
$PITV3,-13.0,-3.7,259.2,2.52,1.01*15
$PITV4,-0.03,0.57,-0.43,627.2,628.5,628.7*1A
$PITV3,-13.0,-3.7,259.1,2.51,1.01*15
$PITV4,-0.03,0.57,-0.43,627.3,628.8,628.7*16
$PITV3,-13.0,-3.7,259.2,2.60,1.01*14
$PITV4,-0.02,0.58,-0.42,627.3,628.6,628.7*17
$GPRMC,151050.00,A,4836.10074,N,00948.67117,E,0.044,,120715,,,A*78
$GPRMC,151052.000,A,4836.1011,N,00948.6716,E,0.02,0.00,120715,,*08
$GPGGA,151052,4836.1011,N,00948.6716,E,1,09,1.3,680.1,M,47.7,M,,*4B
$PGRMZ,2230.4,f,2*33
$GPGGA,151050.00,4836.10074,N,00948.67117,E,1,09,1.06,682.1,M,47.7,M,,*53
$PITV5,0.0,360.0,1.031,0.00,0,0.40*32
$GPGSA,A,3,29,22,26,27,20,18,31,21,16,,,,1.78,1.06,1.42*0B
$PFLAU,0,1,1,1,0,,0,,,*4F
$PITV3,-13.0,-3.8,259.2,2.69,1.01*12
$PITV4,0.01,0.61,-0.39,627.5,629.1,628.8*30
$PGRMZ,2093,F,2*02
$PITV3,-13.0,-3.8,259.3,2.61,1.01*1B
$PITV4,0.04,0.64,-0.36,627.1,628.5,628.8*3E
$PITV3,-13.0,-3.7,259.2,2.70,1.01*15
$PITV4,0.05,0.66,-0.34,627.4,629.0,628.8*3E
$PFLAS,A,12.2,OFF,INT*0A
$PITV3,-13.0,-3.7,259.2,2.60,1.01*14
$PITV4,0.05,0.66,-0.34,627.2,628.7,628.8*3E
$GPRMC,151051.00,A,4836.10075,N,00948.67114,E,0.142,,120715,,,A*7C
$GPRMC,151053.000,A,4836.1011,N,00948.6717,E,0.02,0.00,120715,,*08
$GPGGA,151051.00,4836.10075,N,00948.67114,E,1,09,1.06,682.1,M,47.7,M,,*50
$GPGGA,151053,4836.1011,N,00948.6717,E,1,09,1.3,680.1,M,47.7,M,,*4B
$PGRMZ,2230.6,f,2*31
$GPGSA,A,3,29,22,26,27,20,18,31,21,16,,,,1.78,1.06,1.42*0B
$PITV5,0.0,360.0,1.031,0.00,0,0.40*32
$PFLAU,0,1,1,1,0,,0,,,*4F
$PGRMZ,2096,F,2*07
$PITV3,-13.0,-3.7,259.1,2.56,1.01*12
$PITV4,0.00,0.61,-0.39,627.1,628.5,628.7*3F
$PITV3,-13.0,-3.7,259.2,2.56,1.01*11
$PITV4,-0.03,0.57,-0.43,627.3,629.0,628.7*1F
$PITV3,-12.9,-3.6,259.2,2.68,1.01*15
$PITV4,-0.05,0.56,-0.44,627.2,628.7,628.7*18
$PITV3,-12.9,-3.6,259.2,2.72,1.01*1E
$PITV4,-0.04,0.56,-0.44,627.2,628.6,628.7*18
$GPRMC,151052.00,A,4836.10077,N,00948.67109,E,0.094,,120715,,,A*7B
$GPGGA,151052.00,4836.10077,N,00948.67109,E,1,09,1.06,682.1,M,47.7,M,,*5D
$GPRMC,151054.000,A,4836.1011,N,00948.6717,E,0.02,0.00,120715,,*0F
$GPGSA,A,3,29,22,26,27,20,18,31,21,16,,,,1.78,1.06,1.42*0B
$GPGGA,151054,4836.1011,N,00948.6717,E,1,09,1.3,680.1,M,47.7,M,,*4C
$PGRMZ,2230.8,f,2*3F
$PITV5,0.0,360.0,1.031,0.00,0,0.40*32
$PFLAU,0,1,1,1,0,,0,,,*4F
$PGRMZ,2093,F,2*02
$PITV3,-12.9,-3.6,259.2,2.66,1.01*1B
$PITV4,-0.02,0.59,-0.41,627.3,628.7,628.7*14
$PITV3,-13.0,-3.7,259.2,2.59,1.01*1E
$PITV4,-0.01,0.60,-0.40,627.3,628.7,628.7*1C
$PITV3,-13.0,-3.7,259.3,2.65,1.01*10
$PITV4,-0.01,0.60,-0.40,627.3,628.8,628.7*13
$PITV3,-13.0,-3.7,259.3,2.63,1.01*16
$PITV4,0.01,0.62,-0.38,627.2,628.6,628.8*33
$GPRMC,151053.00,A,4836.10077,N,00948.67107,E,0.065,,120715,,,A*7A
$GPGGA,151053.00,4836.10077,N,00948.67107,E,1,09,1.06,682.0,M,47.7,M,,*53
$GPGSA,A,3,29,22,26,27,20,18,31,21,16,,,,1.78,1.06,1.42*0B
$GPRMC,151055.000,A,4836.1011,N,00948.6717,E,0.04,0.00,120715,,*08
$GPGGA,151055,4836.1011,N,00948.6717,E,1,09,1.3,680.0,M,47.7,M,,*4C
$PGRMZ,2231.0,f,2*36
$PITV5,0.0,360.0,1.031,0.00,0,0.40*32
$PFLAU,0,1,1,1,0,,0,,,*4F
$PGRMZ,2096,F,2*07
$PITV3,-13.0,-3.7,259.3,2.62,1.01*17
$PITV4,0.02,0.63,-0.37,627.2,628.3,628.7*34
$PITV3,-13.0,-3.7,259.3,2.65,1.01*10
$PITV4,0.01,0.62,-0.38,627.4,628.9,628.7*35
$PITV3,-13.1,-3.8,259.3,2.58,1.01*10
$PITV4,0.00,0.61,-0.39,627.1,628.4,628.7*3E
$PITV3,-13.0,-3.8,259.3,2.60,1.01*1A
$PITV4,-0.02,0.59,-0.41,627.3,628.8,628.7*1B
$GPRMC,151054.00,A,4836.10076,N,00948.67110,E,0.080,,120715,,,A*71
$GPGGA,151054.00,4836.10076,N,00948.67110,E,1,09,1.06,681.9,M,47.7,M,,*59
$GPGSA,A,3,29,22,26,27,20,18,31,21,16,,,,1.78,1.06,1.42*0B
$GPRMC,151056.000,A,4836.1011,N,00948.6717,E,0.08,0.00,120715,,*07
$GPGGA,151056,4836.1011,N,00948.6717,E,1,09,1.3,680.0,M,47.7,M,,*4F
$PGRMZ,2230.9,f,2*3E
$PITV5,0.0,360.0,1.031,0.00,0,0.40*32
$PFLAU,0,1,1,1,0,,0,,,*4F
$PGRMZ,2096,F,2*07
$PITV3,-13.0,-3.7,259.3,2.56,1.01*10
$PITV4,-0.05,0.56,-0.45,627.1,628.5,628.7*18
$PITV3,-13.0,-3.6,259.2,2.51,1.01*17
$PITV4,-0.07,0.53,-0.47,627.4,629.0,628.6*1D
$PITV3,-13.0,-3.7,259.3,2.61,1.01*14
$PITV4,-0.09,0.52,-0.48,627.1,628.5,628.6*1C
$PITV3,-13.1,-3.8,259.3,2.67,1.01*1C
$PITV4,-0.08,0.53,-0.47,627.3,628.9,628.6*1D
$GPRMC,151057.000,A,4836.1013,N,00948.6717,E,0.10,0.00,120715,,*0D
$GPGGA,151057,4836.1013,N,00948.6717,E,1,09,1.3,680.0,M,47.7,M,,*4C
$PGRMZ,2230.9,f,2*3E
$PITV5,0.0,360.0,1.031,0.00,0,0.40*32
$GPRMC,151055.00,A,4836.10069,N,00948.67110,E,0.337,,120715,,,A*71
$GPGGA,151055.00,4836.10069,N,00948.67110,E,1,09,1.06,681.9,M,47.7,M,,*56
$GPGSA,A,3,29,22,26,27,20,18,31,21,16,,,,1.78,1.06,1.42*0B
$PITV3,-13.1,-3.8,259.3,2.68,1.01*13
$PITV4,-0.06,0.55,-0.45,627.2,628.7,628.6*18
$PFLAU,0,1,1,1,0,,0,,,*4F
$PGRMZ,2096,F,2*07
$PITV3,-13.0,-3.6,259.3,2.72,1.01*17
$PITV4,-0.04,0.57,-0.43,627.0,628.3,628.6*18
$PITV3,-13.0,-3.6,259.3,2.73,1.01*16
$PITV4,-0.02,0.58,-0.42,627.2,628.6,628.6*17
$PITV3,-13.0,-3.7,259.3,2.69,1.01*1C
$PITV4,-0.01,0.59,-0.41,626.9,628.2,628.6*18
$GPRMC,151058.000,A,4836.1013,N,00948.6717,E,0.02,0.00,120715,,*01
$GPGGA,151058,4836.1013,N,00948.6717,E,1,09,1.3,680.0,M,47.7,M,,*43
$PGRMZ,2230.7,f,2*30
$PITV5,0.0,360.0,1.031,0.00,0,0.40*32
$GPRMC,151056.00,A,4836.10063,N,00948.67109,E,0.037,,120715,,,A*73
$GPGGA,151056.00,4836.10063,N,00948.67109,E,1,09,1.06,681.9,M,47.7,M,,*57
$GPGSA,A,3,29,22,26,27,20,18,31,21,16,,,,1.78,1.06,1.42*0B
$PITV3,-13.1,-3.7,259.3,2.67,1.01*13
$PITV4,-0.02,0.59,-0.41,627.2,628.8,628.6*1B
$PFLAU,0,1,1,1,0,,0,,,*4F
$PGRMZ,2089,F,2*09
$PITV3,-13.1,-3.7,259.3,2.71,1.01*14
$PITV4,-0.02,0.58,-0.42,627.1,628.6,628.6*14
$PITV3,-13.1,-3.7,259.3,2.68,1.01*1C
$PITV4,-0.03,0.58,-0.42,627.1,628.6,628.6*15
$PITV3,-13.1,-3.6,259.3,2.73,1.01*17
$PITV4,-0.03,0.57,-0.43,627.1,628.6,628.6*1B
$GPRMC,151059.000,A,4836.1013,N,00948.6717,E,0.04,0.00,120715,,*06
$GPGGA,151059,4836.1013,N,00948.6717,E,1,09,1.3,680.0,M,47.7,M,,*42
$PGRMZ,2230.7,f,2*30
$GPRMC,151057.00,A,4836.10062,N,00948.67110,E,0.087,,120715,,,A*70
$PITV5,0.0,360.0,1.031,0.00,0,0.40*32
$GPGGA,151057.00,4836.10062,N,00948.67110,E,1,09,1.06,682.0,M,47.7,M,,*55
$GPGSA,A,3,29,22,26,27,20,18,31,21,16,,,,1.78,1.06,1.42*0B
$PITV3,-13.1,-3.7,259.4,2.78,1.01*1A
$PFLAU,0,1,1,1,0,,0,,,*4F
$PITV4,-0.01,0.60,-0.40,627.1,628.7,628.6*1F
$PGRMZ,2093,F,2*02
$PITV3,-13.1,-3.7,259.4,2.79,1.01*1B
$PITV4,0.02,0.62,-0.38,627.2,628.8,628.7*31
$PITV3,-13.1,-3.7,259.4,2.80,1.01*1D
$PITV4,0.03,0.63,-0.37,627.1,628.9,628.6*3D
$PITV3,-13.1,-3.7,259.4,2.76,1.01*14
$PITV4,0.03,0.63,-0.37,627.0,628.4,628.6*31
$GPRMC,151100.000,A,4836.1013,N,00948.6717,E,0.06,0.00,120715,,*09
$GPRMC,151058.00,A,4836.10065,N,00948.67111,E,0.100,,120715,,,A*77
$GPGGA,151100,4836.1013,N,00948.6717,E,1,09,1.3,680.1,M,47.7,M,,*4E
$PGRMZ,2230.7,f,2*30
$PITV5,0.0,360.0,1.031,0.00,0,0.40*32
$GPGGA,151058.00,4836.10065,N,00948.67111,E,1,10,1.06,681.9,M,47.7,M,,*5E
$GPGSA,A,3,29,19,22,26,27,20,18,31,21,16,,,1.78,1.06,1.42*03
$PFLAU,0,1,1,1,0,,0,,,*4F
$PITV3,-13.1,-3.7,259.4,2.82,1.01*1F
$PITV4,0.02,0.62,-0.38,627.2,628.7,628.6*3F
$PGRMZ,2093,F,2*02
$PITV3,-13.2,-3.7,259.5,2.80,1.01*1F
$PITV4,0.01,0.61,-0.39,627.1,628.8,628.6*32
$PITV3,-13.2,-3.7,259.5,2.87,1.01*18
$PITV4,0.01,0.61,-0.39,627.0,628.5,628.6*3E
$PITV3,-13.2,-3.8,259.5,2.92,1.01*13
$PITV4,0.02,0.63,-0.37,626.8,628.1,628.7*3D
$GPRMC,151059.00,A,4836.10065,N,00948.67113,E,0.098,,120715,,,A*74
$GPRMC,151101.000,A,4836.1013,N,00948.6718,E,0.12,0.00,120715,,*02
$GPGGA,151059.00,4836.10065,N,00948.67113,E,1,10,1.06,682.0,M,47.7,M,,*57
$GPGSA,A,3,29,19,22,26,27,20,18,31,21,16,,,1.78,1.06,1.42*03
$GPGGA,151101,4836.1013,N,00948.6718,E,1,09,1.3,680.2,M,47.7,M,,*43
$PGRMZ,2230.9,f,2*3E
$PITV5,0.0,360.0,1.031,0.00,0,0.40*32
$PFLAU,0,1,1,1,0,,0,,,*4F
$PGRMZ,2093,F,2*02
$PITV3,-13.2,-3.8,259.5,3.00,1.01*19
$PITV4,0.04,0.64,-0.36,626.9,628.6,628.7*3B
$PITV3,-13.2,-3.8,259.5,2.97,1.01*16
$PITV4,0.04,0.64,-0.36,626.9,628.4,628.7*39
$PITV3,-13.2,-3.8,259.5,2.95,1.01*14
$PITV4,0.02,0.63,-0.37,627.0,628.7,628.7*32
$PITV3,-13.2,-3.9,259.5,2.94,1.01*14
$PITV4,0.00,0.61,-0.39,626.9,628.6,628.6*34
$GPRMC,151102.000,A,4836.1013,N,00948.6718,E,0.04,0.00,120715,,*06
$GPGGA,151102,4836.1013,N,00948.6718,E,1,09,1.3,680.3,M,47.7,M,,*41
$PGRMZ,2230.8,f,2*3F
$PITV5,0.0,360.0,1.031,0.00,0,0.40*32
$GPRMC,151100.00,A,4836.10065,N,00948.67115,E,0.134,,120715,,,A*78
$GPGGA,151100.00,4836.10065,N,00948.67115,E,1,10,1.06,682.2,M,47.7,M,,*5E
$GPGSA,A,3,29,19,22,26,27,20,18,31,21,16,,,1.77,1.06,1.42*0C
$PITV3,-13.2,-3.9,259.5,2.86,1.01*17
$PFLAU,0,1,1,1,0,,0,,,*4F
$PITV4,-0.02,0.58,-0.42,626.9,628.6,628.6*1D
$PGRMZ,2093,F,2*02
$PITV3,-13.1,-3.8,259.5,2.93,1.01*11
$PITV4,-0.05,0.56,-0.44,627.0,628.7,628.6*1B
$PITV3,-13.1,-3.7,259.5,2.85,1.01*19
$PITV4,-0.05,0.56,-0.44,626.9,628.3,628.6*17
$PITV3,-13.1,-3.6,259.5,2.96,1.01*1A
$PITV4,-0.05,0.56,-0.44,627.2,629.1,628.6*1E
$GPRMC,151101.00,A,4836.10071,N,00948.67119,E,0.190,,120715,,,A*7E
$GPRMC,151103.000,A,4836.1011,N,00948.6718,E,0.08,0.00,120715,,*09
$GPGGA,151103,4836.1011,N,00948.6718,E,1,09,1.3,680.4,M,47.7,M,,*45
$PGRMZ,2231.1,f,2*37
$GPGGA,151101.00,4836.10071,N,00948.67119,E,1,10,1.06,682.1,M,47.7,M,,*55
$PITV5,0.0,360.0,1.031,0.00,0,0.40*32
$GPGSA,A,3,29,19,22,26,27,20,18,31,21,16,,,1.77,1.06,1.42*0C
$PFLAU,0,1,1,1,0,,0,,,*4F
$PGRMZ,2093,F,2*02
$PITV3,-13.0,-3.6,259.5,2.95,1.01*18
$PITV4,-0.03,0.57,-0.43,627.0,628.6,628.6*1A
$PITV3,-13.1,-3.6,259.6,3.00,1.01*17
$PITV4,-0.02,0.59,-0.41,627.0,628.8,628.6*19
$PITV3,-13.1,-3.7,259.6,3.00,1.01*16
$PITV4,0.01,0.61,-0.39,627.0,628.7,628.7*3D
$PITV3,-13.1,-3.7,259.6,2.99,1.01*17
$PITV4,0.03,0.64,-0.37,626.9,628.6,628.7*3D
$GPRMC,151104.000,A,4836.1011,N,00948.6718,E,0.06,0.00,120715,,*00
$GPGGA,151104,4836.1011,N,00948.6718,E,1,09,1.3,680.5,M,47.7,M,,*43
$PGRMZ,2231.6,f,2*30
$PITV5,0.0,360.0,1.031,0.00,0,0.40*32
$GPRMC,151102.00,A,4836.10071,N,00948.67124,E,0.021,,120715,,,A*78
$GPGGA,151102.00,4836.10071,N,00948.67124,E,1,10,1.06,682.2,M,47.7,M,,*5B
$GPGSA,A,3,29,19,22,26,27,20,18,31,21,16,,,1.77,1.06,1.42*0C
$PITV3,-13.1,-3.7,259.6,3.11,1.01*16
$PITV4,0.04,0.65,-0.35,626.9,628.6,628.7*39
$PFLAU,0,1,1,1,0,,0,,,*4F
$PGRMZ,2096,F,2*07
$PITV3,-13.0,-3.6,259.6,3.05,1.01*13
$PITV4,0.05,0.66,-0.34,626.9,628.6,628.7*3A
$PITV3,-13.0,-3.5,259.6,3.07,1.01*12
$PITV4,0.05,0.65,-0.35,627.1,628.8,628.7*3F
$PITV3,-13.0,-3.5,259.6,3.04,1.01*11
$PITV4,0.04,0.64,-0.36,627.0,628.8,628.7*3D
$GPRMC,151103.00,A,4836.10073,N,00948.67123,E,0.066,,120715,,,A*7F
$GPRMC,151105.000,A,4836.1011,N,00948.6718,E,0.06,0.00,120715,,*01
$GPGGA,151103.00,4836.10073,N,00948.67123,E,1,10,1.06,682.3,M,47.7,M,,*5E
$GPGSA,A,3,29,19,22,26,27,20,18,31,21,16,,,1.77,1.06,1.42*0C
$GPGGA,151105,4836.1011,N,00948.6718,E,1,09,1.2,680.5,M,47.7,M,,*43
$PGRMZ,2231.9,f,2*3F
$PITV5,0.0,360.0,1.031,0.00,0,0.40*32
$PFLAU,0,1,1,1,0,,0,,,*4F
$PGRMZ,2093,F,2*02
$PITV3,-13.0,-3.6,259.6,3.03,1.01*15
$PITV4,0.00,0.61,-0.39,626.9,628.5,628.7*36
$PITV3,-13.0,-3.6,259.7,3.09,1.01*1E
$PITV4,-0.02,0.59,-0.41,626.9,628.8,628.6*11
$PITV3,-13.0,-3.6,259.7,3.11,1.01*17
$PITV4,-0.01,0.59,-0.41,626.9,628.6,628.7*1D
$PITV3,-13.1,-3.7,259.7,3.03,1.01*14
$PITV4,-0.01,0.60,-0.40,627.1,628.9,628.6*11
$GPRMC,151106.000,A,4836.1011,N,00948.6718,E,0.02,0.00,120715,,*06
$GPGGA,151106,4836.1011,N,00948.6718,E,1,09,1.2,680.4,M,47.7,M,,*41
$PGRMZ,2232.2,f,2*37
$PITV5,0.0,360.0,1.031,0.00,0,0.40*32
$GPRMC,151104.00,A,4836.10076,N,00948.67122,E,0.025,,120715,,,A*7B
$GPGGA,151104.00,4836.10076,N,00948.67122,E,1,10,1.06,682.3,M,47.7,M,,*5D
$GPGSA,A,3,29,19,22,26,27,20,18,31,21,16,,,1.77,1.06,1.42*0C
$PITV3,-13.1,-3.7,259.7,3.03,1.01*14
$PFLAU,0,1,1,1,0,,0,,,*4F
$PITV4,-0.00,0.60,-0.40,627.0,628.7,628.7*1E
$PGRMZ,2093,F,2*02
$PITV3,-13.1,-3.6,259.7,3.00,1.01*16
$PITV4,0.01,0.62,-0.38,627.3,629.2,628.7*38
$PITV3,-13.1,-3.6,259.7,2.97,1.01*19
$PITV4,0.01,0.62,-0.38,627.0,628.8,628.7*30
$PITV3,-13.1,-3.6,259.8,2.98,1.01*19
$PITV4,0.01,0.62,-0.38,627.0,628.7,628.7*3F
$GPRMC,151105.00,A,4836.10081,N,00948.67122,E,0.219,,120715,,,A*7F
$GPGGA,151105.00,4836.10081,N,00948.67122,E,1,10,1.06,682.3,M,47.7,M,,*54
$GPRMC,151107.000,A,4836.1013,N,00948.6717,E,0.02,0.00,120715,,*0A
$GPGSA,A,3,29,19,22,26,27,20,18,31,21,16,,,1.77,1.06,1.42*0C
$GPGGA,151107,4836.1013,N,00948.6717,E,1,09,1.2,680.2,M,47.7,M,,*4B
$PGRMZ,2232.6,f,2*33
$PITV5,0.0,360.0,1.031,0.00,0,0.40*32
$PFLAU,0,1,1,1,0,,0,,,*4F
$PGRMZ,2089,F,2*09
$PITV3,-13.1,-3.6,259.8,3.08,1.01*11
$PITV4,0.03,0.64,-0.36,627.0,628.7,628.7*35
$PITV3,-13.0,-3.5,259.8,3.00,1.01*1B
$PITV4,0.06,0.66,-0.34,627.1,628.7,628.7*31
$PITV3,-13.0,-3.4,259.8,3.01,1.01*1B
$PITV4,0.06,0.67,-0.33,626.8,628.3,628.7*3B
$PITV3,-13.0,-3.5,259.7,2.98,1.01*14
$PITV4,0.05,0.65,-0.35,626.9,628.3,628.7*3D
$GPRMC,151108.000,A,4836.1013,N,00948.6716,E,0.04,0.00,120715,,*02
$GPGGA,151108,4836.1013,N,00948.6716,E,1,09,1.2,680.0,M,47.7,M,,*47
$PGRMZ,2232.4,f,2*31
$PITV5,0.0,360.0,1.031,0.00,0,0.40*32
$GPRMC,151106.00,A,4836.10087,N,00948.67122,E,0.025,,120715,,,A*77
$GPGGA,151106.00,4836.10087,N,00948.67122,E,1,10,1.06,682.2,M,47.7,M,,*50
$GPGSA,A,3,29,19,22,26,27,20,18,31,21,16,,,1.77,1.06,1.42*0C
$PFLAS,A,12.2,OFF,INT*0A
$PITV3,-13.0,-3.5,259.7,3.05,1.01*11
$PFLAU,0,1,1,1,0,,0,,,*4F
$PITV4,-0.00,0.61,-0.39,626.9,628.6,628.7*18
$PGRMZ,2093,F,2*02
$PITV3,-13.0,-3.5,259.8,3.18,1.01*12
$PITV4,-0.02,0.59,-0.41,627.1,629.0,628.7*10
$PITV3,-13.0,-3.5,259.8,3.15,1.01*1F
$PITV4,-0.02,0.59,-0.41,627.0,628.8,628.7*18
$PITV3,-13.0,-3.6,259.8,3.15,1.01*1C
$PITV4,-0.01,0.60,-0.40,627.1,629.0,628.7*18
$GPRMC,151107.00,A,4836.10091,N,00948.67124,E,0.299,,120715,,,A*72
$GPGGA,151107.00,4836.10091,N,00948.67124,E,1,10,1.06,682.3,M,47.7,M,,*51
$GPRMC,151109.000,A,4836.1013,N,00948.6716,E,0.06,0.00,120715,,*01
$GPGSA,A,3,29,19,22,26,27,20,18,31,21,16,,,1.77,1.06,1.42*0C
$GPGGA,151109,4836.1013,N,00948.6716,E,1,09,1.2,679.8,M,47.7,M,,*48
$PGRMZ,2232.1,f,2*34
$PITV5,0.0,360.0,1.031,0.00,0,0.40*32
$PFLAU,0,1,1,1,0,,0,,,*4F
$PGRMZ,2096,F,2*07
$PITV3,-13.0,-3.6,259.8,3.06,1.01*1E
$PITV4,-0.01,0.59,-0.41,626.9,628.5,628.7*1E
$PITV3,-13.0,-3.6,259.8,3.09,1.01*11
$PITV4,-0.02,0.59,-0.42,626.9,628.7,628.7*1C
$PITV3,-13.1,-3.6,259.8,3.18,1.01*10
$PITV4,-0.02,0.59,-0.41,626.9,628.5,628.7*1D
$PITV3,-13.1,-3.7,259.8,3.15,1.01*1C
$PITV4,-0.00,0.60,-0.40,627.0,628.7,628.7*1E
$GPRMC,151110.000,A,4836.1013,N,00948.6715,E,0.04,0.00,120715,,*08
$GPGGA,151110,4836.1013,N,00948.6715,E,1,09,1.2,679.6,M,47.7,M,,*4D
$PGRMZ,2231.7,f,2*31
$PITV5,0.0,360.0,1.031,0.00,0,0.40*32
$GPRMC,151108.00,A,4836.10095,N,00948.67127,E,0.059,,120715,,,A*74
$GPGGA,151108.00,4836.10095,N,00948.67127,E,1,10,1.06,682.2,M,47.7,M,,*58
$GPGSA,A,3,29,19,22,26,27,20,18,31,21,16,,,1.77,1.06,1.42*0C
$PITV3,-13.1,-3.7,259.9,3.23,1.01*18
$PFLAU,0,1,1,1,0,,0,,,*4F
$PITV4,0.02,0.62,-0.38,626.9,628.4,628.7*37
$PGRMZ,2093,F,2*02
$PITV3,-13.1,-3.7,259.9,3.28,1.01*13
$PITV4,0.04,0.65,-0.35,627.1,629.0,628.8*38
$PITV3,-13.0,-3.5,259.9,3.28,1.01*10
$PITV4,0.07,0.67,-0.33,627.2,629.1,628.8*3D
$PITV3,-13.0,-3.5,259.9,3.20,1.01*18
$PITV4,0.09,0.69,-0.31,627.0,628.6,628.8*3B
$GPRMC,151109.00,A,4836.10092,N,00948.67130,E,0.175,,120715,,,A*7B
$GPGGA,151109.00,4836.10092,N,00948.67130,E,1,10,1.06,682.2,M,47.7,M,,*58
$GPRMC,151111.000,A,4836.1013,N,00948.6715,E,0.02,0.00,120715,,*0F
$GPGSA,A,3,29,19,22,26,27,20,18,31,21,16,,,1.77,1.06,1.42*0C
$GPGGA,151111,4836.1013,N,00948.6715,E,1,09,1.2,679.4,M,47.7,M,,*4E
$PGRMZ,2231.2,f,2*34
$PITV5,0.0,360.0,1.031,0.00,0,0.40*32
$PFLAU,0,1,1,1,0,,0,,,*4F
$PGRMZ,2093,F,2*02
$PITV3,-13.0,-3.6,259.9,3.13,1.01*1B
$PITV4,0.08,0.69,-0.31,626.9,628.7,628.8*33
$PITV3,-13.0,-3.5,259.9,3.16,1.01*1D
$PITV4,0.05,0.65,-0.35,627.1,629.0,628.8*39
$PITV3,-12.9,-3.4,259.8,3.18,1.01*1B
$PITV4,0.03,0.64,-0.36,626.9,628.4,628.8*31
$PITV3,-12.9,-3.4,259.8,3.17,1.01*14
$PITV4,0.03,0.64,-0.36,627.1,629.0,628.8*3D
$GPRMC,151112.000,A,4836.1013,N,00948.6714,E,0.10,0.00,120715,,*0E
$GPGGA,151112,4836.1013,N,00948.6714,E,1,09,1.2,679.3,M,47.7,M,,*4B
$PGRMZ,2230.7,f,2*30
$PITV5,0.0,360.0,1.031,0.00,0,0.40*32
$GPRMC,151110.00,A,4836.10091,N,00948.67133,E,0.096,,120715,,,A*7F
$GPGGA,151110.00,4836.10091,N,00948.67133,E,1,10,1.06,682.2,M,47.7,M,,*50
$GPGSA,A,3,29,19,22,26,27,20,18,31,21,16,,,1.77,1.06,1.42*0C
$PFLAU,0,1,1,1,0,,0,,,*4F
$PITV3,-12.9,-3.5,259.8,3.05,1.01*16
$PITV4,0.02,0.63,-0.37,627.1,628.8,628.8*33
$PGRMZ,2093,F,2*02
$PITV3,-13.0,-3.5,259.8,3.09,1.01*12
$PITV4,-0.01,0.60,-0.40,626.9,628.6,628.8*19
$PITV3,-13.0,-3.5,259.9,3.09,1.01*13
$PITV4,-0.02,0.58,-0.42,627.2,628.9,628.8*16
$PITV3,-13.0,-3.6,259.8,3.08,1.01*10
$PITV4,-0.02,0.59,-0.41,626.9,628.6,628.8*11
$GPRMC,151111.00,A,4836.10093,N,00948.67138,E,0.175,,120715,,,A*7B
$GPGGA,151111.00,4836.10093,N,00948.67138,E,1,10,0.91,682.2,M,47.7,M,,*57
$GPRMC,151113.000,A,4836.1013,N,00948.6714,E,0.10,0.00,120715,,*0F
$GPGSA,A,3,29,19,22,26,27,20,18,31,21,16,,,1.44,0.91,1.12*06
$GPGGA,151113,4836.1013,N,00948.6714,E,1,10,1.2,679.2,M,47.7,M,,*43
$PGRMZ,2230.1,f,2*36
$PITV5,0.0,360.0,1.031,0.00,0,0.40*32
$PFLAU,0,1,1,1,0,,0,,,*4F
$PGRMZ,2096,F,2*07
$PITV3,-13.0,-3.5,259.9,3.07,1.01*1D
$PITV4,-0.02,0.58,-0.42,627.0,628.6,628.8*1B
$PITV3,-13.0,-3.6,259.9,2.99,1.01*18
$PITV4,-0.01,0.59,-0.41,627.0,628.5,628.8*19
$PFLAL,15111102?NIuwR@uEvqli#QjZlZmUGP;R;U:*01
$PITV3,-13.0,-3.7,259.9,3.01,1.01*19
$PITV4,-0.02,0.59,-0.41,627.1,628.9,628.7*18
$PITV3,-13.0,-3.6,259.9,3.10,1.01*18
$PITV4,-0.01,0.59,-0.41,627.2,629.0,628.8*1F
$GPRMC,151114.000,A,4836.1013,N,00948.6714,E,0.06,0.00,120715,,*0F
$GPGGA,151114,4836.1013,N,00948.6714,E,1,10,1.2,679.1,M,47.7,M,,*47
$PGRMZ,2229.7,f,2*38
$GPRMC,151112.00,A,4836.10090,N,00948.67143,E,0.101,,120715,,,A*74
$PITV5,0.0,360.0,1.031,0.00,0,0.40*32
$GPGGA,151112.00,4836.10090,N,00948.67143,E,1,10,0.91,682.2,M,47.7,M,,*5B
$GPGSA,A,3,29,19,22,26,27,20,18,31,21,16,,,1.44,0.91,1.12*06
$PFLAU,0,1,1,1,0,,0,,,*4F
$PITV3,-13.0,-3.7,259.9,3.04,1.01*1C
$PITV4,0.00,0.61,-0.39,627.2,629.0,628.8*37
$PGRMZ,2093,F,2*02
$PITV3,-13.0,-3.7,259.9,3.09,1.01*11
$PITV4,0.02,0.63,-0.37,627.0,628.7,628.8*3D
$PITV3,-13.0,-3.7,259.9,3.06,1.01*1E
$PITV4,0.03,0.64,-0.36,627.0,628.5,628.8*38
$PITV3,-13.0,-3.7,259.9,3.09,1.01*11
$PITV4,0.03,0.64,-0.36,627.2,629.0,628.8*3E
$GPRMC,151113.00,A,4836.10086,N,00948.67140,E,0.134,,120715,,,A*77
$GPGGA,151113.00,4836.10086,N,00948.67140,E,1,10,0.91,682.2,M,47.7,M,,*5E
$GPRMC,151115.000,A,4836.1013,N,00948.6714,E,0.06,0.00,120715,,*0E
$GPGSA,A,3,29,19,22,26,27,20,18,31,21,16,,,1.44,0.91,1.12*06
$GPGGA,151115,4836.1013,N,00948.6714,E,1,10,1.2,679.1,M,47.7,M,,*46
$PGRMZ,2229.2,f,2*3D
$PITV5,0.0,360.0,1.031,0.00,0,0.40*32
$PFLAU,0,1,1,1,0,,0,,,*4F
$PGRMZ,2096,F,2*07
$PITV3,-13.0,-3.6,259.9,3.09,1.01*10
$PITV4,0.03,0.64,-0.36,627.2,629.0,628.8*3E
$PITV3,-13.0,-3.5,259.9,3.19,1.01*12
$PITV4,0.05,0.65,-0.35,627.3,629.2,628.9*38
$PITV3,-12.9,-3.4,259.8,3.12,1.01*11
$PITV4,0.07,0.67,-0.33,627.1,628.8,628.9*37
$PITV3,-12.9,-3.5,259.8,3.05,1.01*16
$PITV4,0.07,0.67,-0.33,627.2,628.7,628.9*3B
$GPRMC,151116.000,A,4836.1013,N,00948.6715,E,0.02,0.00,120715,,*08
$GPGGA,151116,4836.1013,N,00948.6715,E,1,10,1.2,679.2,M,47.7,M,,*47
$PGRMZ,2228.9,f,2*37
$PITV5,0.0,360.0,1.031,0.00,0,0.40*32
$GPRMC,151114.00,A,4836.10086,N,00948.67140,E,0.041,,120715,,,A*73
$GPGGA,151114.00,4836.10086,N,00948.67140,E,1,10,0.91,682.2,M,47.7,M,,*59
$GPGSA,A,3,29,19,22,26,27,20,18,31,21,16,,,1.44,0.91,1.12*06
$PFLAU,0,1,1,1,0,,0,,,*4F
$PITV3,-12.9,-3.3,259.8,3.04,1.01*11
$PITV4,0.05,0.65,-0.35,627.0,628.6,628.8*3F
$PGRMZ,2096,F,2*07
$PITV3,-12.9,-3.3,259.7,3.07,1.01*1D
$PITV4,0.03,0.63,-0.37,627.2,629.0,628.8*38
$PITV3,-12.8,-3.3,259.8,3.04,1.01*10
$PITV4,0.01,0.62,-0.38,627.1,628.7,628.8*31
$PITV3,-12.9,-3.4,259.8,3.08,1.01*1A
$PITV4,-0.01,0.60,-0.40,627.1,628.8,628.8*1E
$GPRMC,151115.00,A,4836.10087,N,00948.67141,E,0.120,,120715,,,A*74
$GPGGA,151115.00,4836.10087,N,00948.67141,E,1,10,0.91,682.2,M,47.7,M,,*58
$GPRMC,151117.000,A,4836.1011,N,00948.6715,E,0.02,0.00,120715,,*0B
$GPGSA,A,3,29,19,22,26,27,20,18,31,21,16,,,1.44,0.91,1.12*06
$GPGGA,151117,4836.1011,N,00948.6715,E,1,10,1.2,679.4,M,47.7,M,,*42
$PGRMZ,2228.7,f,2*39
$PITV5,0.0,360.0,1.031,0.00,0,0.40*32
$PFLAL,15111402?NIuwxZWsG@S>CvUESERj`wdjcmb*50
$PFLAU,0,1,1,1,0,,0,,,*4F
$PGRMZ,2096,F,2*07
$PITV3,-12.9,-3.5,259.8,2.91,1.01*1A
$PITV4,-0.03,0.57,-0.43,627.1,628.7,628.8*14
$PITV3,-12.8,-3.3,259.7,2.91,1.01*12
$PITV4,-0.06,0.54,-0.46,627.1,628.5,628.7*1A
$PITV3,-12.8,-3.3,259.7,2.97,1.01*14
$PITV4,-0.08,0.52,-0.48,627.2,628.9,628.7*13
$PFLAL,151115GPS 10 38*35
$PITV3,-12.9,-3.4,259.7,2.90,1.01*15
$PITV4,-0.08,0.52,-0.48,627.1,628.7,628.7*1E
$GPRMC,151118.000,A,4836.1011,N,00948.6716,E,0.08,0.00,120715,,*0D
$GPRMC,151116.00,A,4836.10087,N,00948.67141,E,0.053,,120715,,,A*72
$GPGGA,151118,4836.1011,N,00948.6716,E,1,10,1.2,679.6,M,47.7,M,,*4C
$PGRMZ,2228.7,f,2*39
$PITV5,0.0,360.0,1.031,0.00,0,0.40*32
$GPGGA,151116.00,4836.10087,N,00948.67141,E,1,10,0.91,682.3,M,47.7,M,,*5A
$GPGSA,A,3,29,19,22,26,27,20,18,31,21,16,,,1.44,0.91,1.12*06
$PFLAU,0,1,1,1,0,,0,,,*4F
$PITV3,-12.9,-3.5,259.8,2.89,1.01*13
$PITV4,-0.07,0.53,-0.47,627.2,628.9,628.7*12
$PGRMZ,2093,F,2*02
$PITV3,-12.9,-3.5,259.8,2.86,1.01*1C
$PITV4,-0.06,0.54,-0.46,627.2,628.8,628.7*14
$PITV3,-12.8,-3.4,259.7,2.93,1.01*17
$PITV4,-0.04,0.56,-0.44,627.2,628.6,628.7*18
$PITV3,-12.8,-3.3,259.7,2.93,1.01*10
$PITV4,-0.01,0.60,-0.41,627.2,629.0,628.8*15
$GPRMC,151117.00,A,4836.10084,N,00948.67140,E,0.067,,120715,,,A*76
$GPGGA,151117.00,4836.10084,N,00948.67140,E,1,10,1.06,682.4,M,47.7,M,,*51
$GPGSA,A,3,29,19,22,26,27,20,18,31,21,16,,,1.77,1.06,1.42*0C
$GPRMC,151119.000,A,4836.1011,N,00948.6717,E,0.06,0.00,120715,,*03
$GPGGA,151119,4836.1011,N,00948.6717,E,1,10,1.2,679.8,M,47.7,M,,*42
$PGRMZ,2229.1,f,2*3E
$PITV5,0.0,360.0,1.031,0.00,0,0.40*32
$PFLAU,0,1,1,1,0,,0,,,*4F
$PGRMZ,2096,F,2*07
$PITV3,-12.8,-3.4,259.8,2.99,1.01*12
$PITV4,0.05,0.65,-0.35,627.2,628.7,628.8*3C
$PITV3,-12.8,-3.3,259.8,3.08,1.01*1C
$PITV4,0.08,0.69,-0.31,627.2,629.0,628.9*3E
$PITV3,-12.8,-3.5,259.9,3.09,1.01*1A
$PITV4,0.12,0.73,-0.27,627.3,629.0,628.9*38
$PITV3,-12.8,-3.4,259.8,3.05,1.01*16
$PITV4,0.14,0.75,-0.25,627.1,628.8,628.9*31
$GPRMC,151120.000,A,4836.1011,N,00948.6717,E,0.02,0.00,120715,,*0D
$GPRMC,151118.00,A,4836.10081,N,00948.67144,E,0.169,,120715,,,A*77
$GPGGA,151120,4836.1011,N,00948.6717,E,1,10,1.2,680.0,M,47.7,M,,*46
$PGRMZ,2229.5,f,2*3A
$PITV5,0.0,360.0,1.031,0.00,0,0.40*32
$GPGGA,151118.00,4836.10081,N,00948.67144,E,1,10,0.91,682.5,M,47.7,M,,*51
$GPGSA,A,3,29,19,22,26,27,20,18,31,21,16,,,1.44,0.91,1.12*06
$PFLAU,0,1,1,1,0,,0,,,*4F
$PITV3,-12.7,-3.3,259.7,3.06,1.01*12
$PITV4,0.13,0.74,-0.26,627.2,628.8,628.9*37
$PGRMZ,2093,F,2*02
$PITV3,-12.7,-3.2,259.7,3.03,1.01*16
$PITV4,0.10,0.71,-0.29,627.2,628.8,628.9*3E
$PITV3,-12.7,-3.4,259.7,3.05,1.01*16
$PITV4,0.06,0.66,-0.34,627.2,629.1,628.9*3B
$PITV3,-12.7,-3.3,259.6,3.07,1.01*12
$PITV4,0.03,0.63,-0.37,627.2,628.8,628.9*30
$GPRMC,151119.00,A,4836.10077,N,00948.67146,E,0.232,,120715,,,A*70
$GPGGA,151119.00,4836.10077,N,00948.67146,E,1,10,0.91,682.5,M,47.7,M,,*5B
$GPGSA,A,3,29,19,22,26,27,20,18,31,21,16,,,1.44,0.91,1.12*06
$GPRMC,151121.000,A,4836.1011,N,00948.6718,E,0.04,0.00,120715,,*05
$GPGGA,151121,4836.1011,N,00948.6718,E,1,10,1.2,680.0,M,47.7,M,,*48
$PGRMZ,2229.8,f,2*37
$PITV5,0.0,360.0,1.031,0.00,0,0.40*32
$PFLAU,0,1,1,1,0,,0,,,*4F
$PGRMZ,2096,F,2*07
$PITV3,-12.7,-3.4,259.6,2.97,1.01*1D
$PITV4,-0.00,0.60,-0.40,627.2,628.9,628.9*1C
$PITV3,-12.7,-3.4,259.6,3.08,1.01*1A
$PITV4,-0.03,0.58,-0.42,627.3,629.1,628.9*1E
$PITV3,-12.7,-3.4,259.6,3.05,1.01*17
$PITV4,-0.03,0.58,-0.42,627.3,629.0,628.9*1F
$PITV3,-12.8,-3.5,259.6,3.03,1.01*1F
$PITV4,-0.02,0.59,-0.42,627.3,629.1,628.9*1E
$GPRMC,151122.000,A,4836.1011,N,00948.6719,E,0.06,0.00,120715,,*05
$GPRMC,151120.00,A,4836.10071,N,00948.67143,E,0.043,,120715,,,A*7D
$GPGGA,151122,4836.1011,N,00948.6719,E,1,10,1.2,680.0,M,47.7,M,,*4A
$PGRMZ,2230.1,f,2*36
$PITV5,0.0,360.0,1.031,0.00,0,0.40*32
$GPGGA,151120.00,4836.10071,N,00948.67143,E,1,10,1.06,682.6,M,47.7,M,,*5E
$GPGSA,A,3,29,19,22,26,27,20,18,31,21,16,,,1.77,1.06,1.42*0C
$PFLAU,0,1,1,1,0,,0,,,*4F
$PITV3,-12.8,-3.5,259.6,3.06,1.01*1A
$PITV4,-0.03,0.58,-0.43,627.2,629.0,628.8*1E
$PGRMZ,2096,F,2*07
$PITV3,-12.8,-3.5,259.6,3.02,1.01*1E
$PITV4,-0.04,0.57,-0.43,627.3,629.1,628.8*16
$PITV3,-12.8,-3.5,259.6,3.08,1.01*14
$PITV4,-0.02,0.58,-0.42,627.1,628.9,628.9*14
$PITV3,-12.8,-3.6,259.6,3.07,1.01*18
$PITV4,-0.00,0.61,-0.39,627.1,628.7,628.9*1E
$GPRMC,151121.00,A,4836.10070,N,00948.67143,E,0.101,,120715,,,A*7A
$GPGGA,151121.00,4836.10070,N,00948.67143,E,1,10,1.06,682.7,M,47.7,M,,*5F
$GPGSA,A,3,29,19,22,26,27,20,18,31,21,16,,,1.77,1.06,1.42*0C
$GPRMC,151123.000,A,4836.1008,N,00948.6719,E,0.04,0.00,120715,,*0E
$GPGGA,151123,4836.1008,N,00948.6719,E,1,09,1.2,680.1,M,47.7,M,,*4A
$PGRMZ,2230.5,f,2*32
$PITV5,0.0,360.0,1.031,0.00,0,0.40*32
$PFLAU,0,1,1,1,0,,0,,,*4F
$PGRMZ,2096,F,2*07
$PITV3,-12.9,-3.7,259.6,3.06,1.01*19
$PITV4,0.03,0.63,-0.37,627.2,628.9,628.9*31
$PFLAS,A,12.2,OFF,INT*0A
$PITV3,-12.9,-3.7,259.6,3.04,1.01*1B
$PITV4,0.02,0.63,-0.37,627.1,628.8,628.9*32
$PITV3,-12.9,-3.7,259.6,3.00,1.01*1F
$PITV4,0.01,0.61,-0.39,627.3,629.1,628.9*37
$PITV3,-12.9,-3.7,259.6,3.08,1.01*17
$PITV4,-0.01,0.60,-0.40,627.3,629.0,628.9*14
$GPRMC,151124.000,A,4836.1008,N,00948.6719,E,0.04,0.00,120715,,*09
$GPRMC,151122.00,A,4836.10070,N,00948.67143,E,0.086,,120715,,,A*77
$GPGGA,151124,4836.1008,N,00948.6719,E,1,09,1.2,680.1,M,47.7,M,,*4D
$PGRMZ,2230.7,f,2*30
$PITV5,0.0,360.0,1.031,0.00,0,0.40*32
$GPGGA,151122.00,4836.10070,N,00948.67143,E,1,10,1.06,682.8,M,47.7,M,,*53
$GPGSA,A,3,29,19,22,26,27,20,18,31,21,16,,,1.77,1.06,1.42*0C
$PFLAU,0,1,1,1,0,,0,,,*4F
$PITV3,-13.0,-3.7,259.6,3.07,1.01*10
$PITV4,-0.01,0.60,-0.40,627.3,629.1,628.9*15
$PGRMZ,2096,F,2*07
$PITV3,-13.0,-3.7,259.6,3.08,1.01*1F
$PITV4,0.01,0.62,-0.38,627.4,629.3,628.9*30
$PITV3,-13.0,-3.7,259.6,3.08,1.01*1F
$PITV4,0.03,0.63,-0.37,627.4,629.3,628.9*3C
$PITV3,-13.0,-3.7,259.6,3.06,1.01*11
$PITV4,0.04,0.64,-0.36,627.1,628.7,628.9*3D
$GPRMC,151123.00,A,4836.10073,N,00948.67139,E,0.162,,120715,,,A*73
$GPGGA,151123.00,4836.10073,N,00948.67139,E,1,10,1.06,682.8,M,47.7,M,,*5C
$GPGSA,A,3,29,19,22,26,27,20,18,31,21,16,,,1.77,1.06,1.42*0C
$GPRMC,151125.000,A,4836.1011,N,00948.6718,E,0.04,0.00,120715,,*01
$GPGGA,151125,4836.1011,N,00948.6718,E,1,10,1.2,680.1,M,47.7,M,,*4D
$PGRMZ,2230.9,f,2*3E
$PITV5,0.0,360.0,1.031,0.00,0,0.40*32
$PFLAL,151122AZNSTAT 0 0*38
$PFLAU,0,1,1,1,0,,0,,,*4F
$PGRMZ,2093,F,2*02
$PITV3,-12.9,-3.6,259.6,2.94,1.01*12
$PITV4,0.02,0.63,-0.37,627.2,628.7,628.9*3E
$PITV3,-12.9,-3.7,259.6,2.86,1.01*10
$PITV4,-0.01,0.60,-0.40,627.0,628.4,628.9*12
$PITV3,-12.9,-3.7,259.5,2.72,1.01*18
$PITV4,-0.05,0.56,-0.44,627.2,628.8,628.8*18
$PITV3,-12.9,-3.6,259.5,2.75,1.01*1E
$PITV4,-0.10,0.51,-0.49,627.3,628.9,628.8*16
$GPRMC,151126.000,A,4836.1011,N,00948.6718,E,0.02,0.00,120715,,*04
$GPGGA,151126,4836.1011,N,00948.6718,E,1,10,1.2,679.9,M,47.7,M,,*40
$PGRMZ,2230.9,f,2*3E
$PITV5,0.0,360.0,1.031,0.00,0,0.40*32
$GPRMC,151124.00,A,4836.10076,N,00948.67135,E,0.109,,120715,,,A*70
$GPGGA,151124.00,4836.10076,N,00948.67135,E,1,09,1.06,682.8,M,47.7,M,,*5A
$GPGSA,A,3,29,22,26,27,20,18,31,21,16,,,,1.77,1.06,1.42*04
$PITV3,-12.9,-3.7,259.5,2.75,1.01*1F
$PITV4,-0.13,0.47,-0.53,627.1,628.6,628.7*1B
$PFLAU,0,1,1,1,0,,0,,,*4F
$PGRMZ,2096,F,2*07
$PITV3,-12.8,-3.5,259.5,2.74,1.01*1D
$PITV4,-0.15,0.46,-0.54,627.1,628.7,628.7*1A
$PITV3,-12.9,-3.6,259.5,2.70,1.01*1B
$PITV4,-0.14,0.47,-0.53,627.2,628.7,628.7*1E
$PITV3,-12.8,-3.5,259.4,2.75,1.01*1D
$PITV4,-0.13,0.48,-0.53,627.0,628.4,628.7*17
$GPRMC,151127.000,A,4836.1011,N,00948.6718,E,0.10,0.00,120715,,*06
$GPGGA,151127,4836.1011,N,00948.6718,E,1,10,1.2,679.8,M,47.7,M,,*40
$PGRMZ,2230.8,f,2*3F
$GPRMC,151125.00,A,4836.10073,N,00948.67129,E,0.221,,120715,,,A*70
$PITV5,0.0,360.0,1.031,0.00,0,0.40*32
$GPGGA,151125.00,4836.10073,N,00948.67129,E,1,09,1.06,683.0,M,47.7,M,,*5A
$GPGSA,A,3,29,22,26,27,20,18,31,21,16,,,,1.77,1.06,1.42*04
$PFLAU,0,1,1,1,0,,0,,,*4F
$PITV3,-12.8,-3.5,259.4,2.85,1.01*12
$PITV4,-0.11,0.49,-0.51,627.2,628.9,628.7*19
$PGRMZ,2096,F,2*07
$PITV3,-12.9,-3.6,259.4,2.99,1.01*1D
$PITV4,-0.08,0.52,-0.48,627.2,629.1,628.7*1A
$PITV3,-12.8,-3.6,259.4,2.96,1.01*13
$PITV4,-0.05,0.55,-0.45,627.1,628.7,628.7*19
$PITV3,-12.8,-3.5,259.4,3.01,1.01*1F
$PITV4,-0.02,0.59,-0.41,627.1,628.7,628.7*16
$GPRMC,151126.00,A,4836.10070,N,00948.67128,E,0.155,,120715,,,A*71
$GPGGA,151126.00,4836.10070,N,00948.67128,E,1,09,1.06,683.0,M,47.7,M,,*5B
$GPRMC,151128.000,A,4836.1011,N,00948.6717,E,0.06,0.00,120715,,*01
$GPGSA,A,3,29,22,26,27,20,18,31,21,16,,,,1.77,1.06,1.42*04
$GPGGA,151128,4836.1011,N,00948.6717,E,1,10,1.2,679.7,M,47.7,M,,*4F
$PGRMZ,2230.5,f,2*32
$PITV5,0.0,360.0,1.031,0.00,0,0.40*32
$PFLAU,0,1,1,1,0,,0,,,*4F
$PGRMZ,2093,F,2*02
$PITV3,-12.9,-3.7,259.4,3.09,1.01*14
$PITV4,0.03,0.64,-0.36,627.1,628.9,628.7*3A
$PITV3,-12.8,-3.5,259.4,3.15,1.01*1A
$PITV4,0.06,0.67,-0.33,627.0,628.8,628.8*36
$PITV3,-12.8,-3.6,259.4,3.08,1.01*15
$PITV4,0.09,0.69,-0.31,627.1,628.9,628.8*35
$PITV3,-12.9,-3.7,259.4,3.02,1.01*1F
$PITV4,0.10,0.70,-0.30,627.1,628.9,628.8*34
$GPRMC,151129.000,A,4836.1013,N,00948.6717,E,0.10,0.00,120715,,*05
$GPRMC,151127.00,A,4836.10067,N,00948.67130,E,0.208,,120715,,,A*74
$GPGGA,151129,4836.1013,N,00948.6717,E,1,10,1.2,679.6,M,47.7,M,,*4D
$PGRMZ,2230.3,f,2*34
$PITV5,0.0,360.0,1.031,0.00,0,0.40*32
$GPGGA,151127.00,4836.10067,N,00948.67130,E,1,09,1.06,682.9,M,47.7,M,,*5D
$GPGSA,A,3,29,22,26,27,20,18,31,21,16,,,,1.77,1.06,1.42*04
$PFLAU,0,1,1,1,0,,0,,,*4F
$PITV3,-12.9,-3.7,259.5,3.09,1.01*15
$PITV4,0.08,0.69,-0.31,627.0,628.5,628.8*39
$PGRMZ,2096,F,2*07
$PITV3,-12.9,-3.8,259.5,3.10,1.01*12
$PITV4,0.06,0.67,-0.33,627.0,628.6,628.8*38
$PITV3,-12.9,-3.7,259.4,3.11,1.01*1D
$PITV4,0.05,0.66,-0.34,627.1,629.0,628.8*3B
$PITV3,-12.9,-3.6,259.4,3.12,1.01*1F
$PITV4,0.04,0.65,-0.35,627.0,628.7,628.8*3F
$GPRMC,151128.00,A,4836.10064,N,00948.67132,E,0.179,,120715,,,A*7F
$GPGGA,151128.00,4836.10064,N,00948.67132,E,1,09,1.06,682.9,M,47.7,M,,*53
$GPGSA,A,3,29,22,26,27,20,18,31,21,16,,,,1.77,1.06,1.42*04
$GPRMC,151130.000,A,4836.1013,N,00948.6717,E,0.08,0.00,120715,,*04
$GPGGA,151130,4836.1013,N,00948.6717,E,1,10,1.2,679.5,M,47.7,M,,*46
$PGRMZ,2230.0,f,2*37
$PITV5,0.0,360.0,1.031,0.00,0,0.40*32
$PFLAU,0,1,1,1,0,,0,,,*4F
$PGRMZ,2096,F,2*07
$PITV3,-12.9,-3.7,259.4,3.05,1.01*18
$PITV4,0.01,0.61,-0.39,627.2,629.2,628.8*34
$PITV3,-12.9,-3.8,259.4,3.00,1.01*12
$PITV4,-0.04,0.57,-0.43,626.9,628.5,628.7*17
$PITV3,-12.8,-3.7,259.4,2.92,1.01*16
$PITV4,-0.06,0.54,-0.46,626.9,628.3,628.7*15
$PITV3,-12.9,-3.7,259.4,3.04,1.01*19
$PITV4,-0.08,0.52,-0.48,627.0,628.6,628.7*1E
$GPRMC,151131.000,A,4836.1013,N,00948.6718,E,0.06,0.00,120715,,*04
$GPGGA,151131,4836.1013,N,00948.6718,E,1,10,1.2,679.3,M,47.7,M,,*4E
$PGRMZ,2229.7,f,2*38
$GPRMC,151129.00,A,4836.10062,N,00948.67131,E,0.111,,120715,,,A*75
$PITV5,0.0,360.0,1.031,0.00,0,0.40*32
$GPGGA,151129.00,4836.10062,N,00948.67131,E,1,09,1.06,682.9,M,47.7,M,,*57
$GPGSA,A,3,29,22,26,27,20,18,31,21,16,,,,1.77,1.06,1.42*04
$PFLAU,0,1,1,1,0,,0,,,*4F
$PITV3,-12.9,-3.8,259.4,2.95,1.01*1F
$PITV4,-0.08,0.53,-0.47,626.9,628.3,628.7*1D
$PGRMZ,2093,F,2*02
$PITV3,-12.9,-3.8,259.4,2.99,1.01*13
$PITV4,-0.07,0.53,-0.47,627.0,628.7,628.7*1E
$PITV3,-12.9,-3.8,259.4,3.00,1.01*12
$PITV4,-0.06,0.55,-0.45,627.0,628.8,628.7*14
$PITV3,-12.8,-3.6,259.4,3.09,1.01*14
$PITV4,-0.03,0.57,-0.43,627.1,629.0,628.7*1D
$GPRMC,151130.00,A,4836.10059,N,00948.67130,E,0.116,,120715,,,A*73
$GPGGA,151130.00,4836.10059,N,00948.67130,E,1,09,1.06,683.0,M,47.7,M,,*5E
$GPRMC,151132.000,A,4836.1013,N,00948.6718,E,0.02,0.00,120715,,*03
$GPGSA,A,3,29,22,26,27,20,18,31,21,16,,,,1.77,1.06,1.42*04
$GPGGA,151132,4836.1013,N,00948.6718,E,1,10,1.2,679.1,M,47.7,M,,*4F
$PGRMZ,2229.4,f,2*3B
$PITV5,0.0,360.0,1.031,0.00,0,0.40*32
$PFLAU,0,1,1,1,0,,0,,,*4F
$PGRMZ,2093,F,2*02
$PITV3,-12.9,-3.6,259.4,3.11,1.01*1C
$PITV4,0.01,0.62,-0.39,626.9,628.6,628.8*38
$PITV3,-12.9,-3.7,259.4,3.04,1.01*19
$PITV4,0.05,0.65,-0.35,626.8,628.2,628.8*32
$PITV3,-12.8,-3.6,259.4,3.02,1.01*1F
$PITV4,0.05,0.66,-0.34,626.9,628.4,628.8*37
$PITV3,-12.9,-3.5,259.4,3.06,1.01*19
$PITV4,0.04,0.64,-0.36,627.1,628.9,628.8*32
$GPRMC,151133.000,A,4836.1013,N,00948.6718,E,0.06,0.00,120715,,*06
$GPGGA,151133,4836.1013,N,00948.6718,E,1,10,1.2,679.0,M,47.7,M,,*4F
$PGRMZ,2229.1,f,2*3E
$GPRMC,151131.00,A,4836.10061,N,00948.67132,E,0.044,,120715,,,A*7D
$PITV5,0.0,360.0,1.031,0.00,0,0.40*32
$GPGGA,151131.00,4836.10061,N,00948.67132,E,1,09,1.06,682.9,M,47.7,M,,*5E
$GPGSA,A,3,29,22,26,27,20,18,31,21,16,,,,1.77,1.06,1.42*04
$PFLAU,0,1,1,1,0,,0,,,*4F
$PITV3,-12.9,-3.5,259.4,3.03,1.01*1C
$PITV4,0.04,0.64,-0.36,627.0,628.5,628.8*3F
$PGRMZ,2096,F,2*07
$PITV3,-12.9,-3.6,259.4,3.05,1.01*19
$PITV4,0.03,0.64,-0.37,627.0,628.5,628.8*39
$PITV3,-12.9,-3.6,259.4,3.10,1.01*1D
$PITV4,0.02,0.62,-0.38,627.1,628.9,628.8*3C
$PITV3,-12.9,-3.7,259.4,3.02,1.01*1F
$PITV4,0.01,0.61,-0.39,626.9,628.4,628.7*36
$GPRMC,151132.00,A,4836.10066,N,00948.67137,E,0.272,,120715,,,A*7B
$GPGGA,151132.00,4836.10066,N,00948.67137,E,1,09,1.06,682.8,M,47.7,M,,*5E
$GPGSA,A,3,29,22,26,27,20,18,31,21,16,,,,1.77,1.06,1.42*04
$GPRMC,151134.000,A,4836.1013,N,00948.6718,E,0.04,0.00,120715,,*03
$GPGGA,151134,4836.1013,N,00948.6718,E,1,10,1.2,678.9,M,47.7,M,,*40
$PGRMZ,2228.6,f,2*38
$PITV5,0.0,360.0,1.031,0.00,0,0.40*32
$PFLAU,0,1,1,1,0,,0,,,*4F
$PGRMZ,2096,F,2*07
$PITV3,-13.0,-3.8,259.4,2.98,1.01*1A
$PITV4,-0.02,0.59,-0.41,627.1,628.8,628.7*19
$PITV3,-13.0,-3.8,259.4,2.98,1.01*1A
$PITV4,-0.03,0.58,-0.42,627.0,628.7,628.7*14
$PITV3,-13.0,-3.8,259.4,3.02,1.01*18
$PITV4,-0.03,0.57,-0.43,627.0,628.9,628.7*14
$PITV3,-13.0,-3.8,259.4,3.00,1.01*1A
$PITV4,-0.02,0.58,-0.42,627.0,628.6,628.7*14
$GPRMC,151135.000,A,4836.1013,N,00948.6719,E,0.06,0.00,120715,,*01
$GPRMC,151133.00,A,4836.10070,N,00948.67141,E,0.122,,120715,,,A*7A
$GPGGA,151135,4836.1013,N,00948.6719,E,1,10,1.2,678.8,M,47.7,M,,*41
$PGRMZ,2228.2,f,2*3C
$PITV5,0.0,360.0,1.031,0.00,0,0.40*32
$GPGGA,151133.00,4836.10070,N,00948.67141,E,1,09,1.06,682.7,M,47.7,M,,*56
$GPGSA,A,3,29,22,26,27,20,18,31,21,16,,,,1.77,1.06,1.42*04
$PFLAU,0,1,1,1,0,,0,,,*4F
$PITV3,-13.0,-3.8,259.4,2.99,1.01*1B
$PITV4,-0.01,0.59,-0.41,627.1,628.7,628.7*15
$PGRMZ,2093,F,2*02
$PITV3,-13.0,-3.8,259.4,2.96,1.01*14
$PITV4,0.01,0.61,-0.39,627.0,628.5,628.7*3F
$PITV3,-13.0,-3.9,259.4,2.94,1.01*17
$PITV4,0.02,0.63,-0.37,627.0,628.6,628.7*33
$PITV3,-13.1,-3.9,259.4,2.97,1.01*15
$PITV4,0.02,0.62,-0.38,626.9,628.5,628.7*36
$GPRMC,151134.00,A,4836.10072,N,00948.67140,E,0.055,,120715,,,A*7F
$GPGGA,151134.00,4836.10072,N,00948.67140,E,1,09,1.06,682.6,M,47.7,M,,*53
$GPGSA,A,3,29,22,26,27,20,18,31,21,16,,,,1.77,1.06,1.42*04
$GPRMC,151136.000,A,4836.1013,N,00948.6720,E,0.00,0.00,120715,,*0E
$GPGGA,151136,4836.1013,N,00948.6720,E,1,10,1.2,678.7,M,47.7,M,,*47
$PGRMZ,2227.9,f,2*38
$PITV5,0.0,360.0,1.031,0.00,0,0.40*32
$PFLAU,0,1,1,1,0,,0,,,*4F
$PGRMZ,2093,F,2*02
$PITV3,-13.1,-3.8,259.4,3.01,1.01*1A
$PITV4,0.02,0.62,-0.38,627.2,629.1,628.8*36
$PITV3,-13.1,-3.8,259.4,3.00,1.01*1B
$PITV4,0.02,0.63,-0.37,627.1,628.7,628.8*3C
$PITV3,-13.1,-3.8,259.4,2.96,1.01*15
$PITV4,0.02,0.63,-0.37,627.1,628.9,628.8*32
$PITV3,-13.1,-3.8,259.4,3.06,1.01*1D
$PITV4,0.02,0.62,-0.38,627.0,628.6,628.8*32
$GPRMC,151137.000,A,4836.1013,N,00948.6720,E,0.00,0.00,120715,,*0F
$GPRMC,151135.00,A,4836.10074,N,00948.67139,E,0.257,,120715,,,A*76
$GPGGA,151137,4836.1013,N,00948.6720,E,1,10,1.2,678.7,M,47.7,M,,*46
$PGRMZ,2227.6,f,2*37
$PITV5,0.0,360.0,1.031,0.00,0,0.40*32
$GPGGA,151135.00,4836.10074,N,00948.67139,E,1,09,1.06,682.6,M,47.7,M,,*5A
$GPGSA,A,3,29,22,26,27,20,18,31,21,16,,,,1.77,1.06,1.42*04
$PFLAU,0,1,1,1,0,,0,,,*4F
$PITV3,-13.1,-3.8,259.4,2.91,1.01*12
$PITV4,0.02,0.63,-0.38,626.8,628.2,628.8*3E
$PGRMZ,2096,F,2*07
$PITV3,-13.1,-3.9,259.4,2.82,1.01*11
$PITV4,-0.02,0.59,-0.41,627.0,628.7,628.7*17
$PITV3,-13.1,-3.8,259.4,2.81,1.01*13
$PITV4,-0.06,0.54,-0.46,627.1,628.8,628.7*17
$PITV3,-13.1,-3.9,259.4,2.85,1.01*16
$PITV4,-0.09,0.52,-0.49,627.1,628.9,628.6*11
$GPRMC,151136.00,A,4836.10077,N,00948.67141,E,0.041,,120715,,,A*7C
$GPRMC,151138.000,A,4836.1013,N,00948.6720,E,0.02,0.00,120715,,*02
$GPGGA,151136.00,4836.10077,N,00948.67141,E,1,09,1.06,682.6,M,47.7,M,,*55
$GPGGA,151138,4836.1013,N,00948.6720,E,1,10,1.2,678.7,M,47.7,M,,*49
$PGRMZ,2227.1,f,2*30
$GPGSA,A,3,29,22,26,27,20,18,31,21,16,,,,1.77,1.06,1.42*04
$PITV5,0.0,360.0,1.031,0.00,0,0.40*32
$PFLAU,0,1,1,1,0,,0,,,*4F
$PITV3,-13.1,-3.9,259.4,2.88,1.01*1B
$PGRMZ,2093,F,2*02
$PITV4,-0.11,0.50,-0.51,627.0,628.5,628.6*1E
$PITV3,-13.1,-3.9,259.4,2.90,1.01*12
$PITV4,-0.10,0.51,-0.49,627.0,628.8,628.6*1A
$PFLAS,A,12.2,OFF,INT*0A
$PITV3,-13.1,-3.9,259.4,2.92,1.01*10
$PITV4,-0.08,0.53,-0.47,627.1,628.8,628.6*1E
$PITV3,-13.1,-3.9,259.4,2.86,1.01*15
$PITV4,-0.05,0.56,-0.44,627.0,628.4,628.6*18
$GPRMC,151139.000,A,4836.1013,N,00948.6721,E,0.00,0.00,120715,,*00
$GPGGA,151139,4836.1013,N,00948.6721,E,1,10,1.2,678.9,M,47.7,M,,*47
$PGRMZ,2226.9,f,2*39
$PITV5,0.0,360.0,1.031,0.00,0,0.40*32
$GPRMC,151137.00,A,4836.10073,N,00948.67140,E,0.113,,120715,,,A*7E
$GPGGA,151137.00,4836.10073,N,00948.67140,E,1,09,1.06,682.6,M,47.7,M,,*51
$GPGSA,A,3,29,22,26,27,20,18,31,21,16,,,,1.77,1.06,1.42*04
$PITV3,-13.1,-3.8,259.4,2.92,1.01*11
$PITV4,-0.02,0.58,-0.42,627.1,628.6,628.6*14
$PFLAU,0,1,1,1,0,,0,,,*4F
$PGRMZ,2096,F,2*07
$PITV3,-13.1,-3.9,259.4,2.93,1.01*11
$PITV4,0.00,0.61,-0.39,627.2,628.9,628.7*30
$PITV3,-13.1,-3.9,259.5,2.96,1.01*15
$PITV4,0.03,0.63,-0.37,626.9,628.5,628.7*39
$PITV3,-13.1,-3.8,259.5,2.92,1.01*10
$PITV4,0.05,0.65,-0.35,627.2,628.8,628.7*3C
$GPRMC,151138.00,A,4836.10070,N,00948.67141,E,0.130,,120715,,,A*72
$GPRMC,151140.000,A,4836.1013,N,00948.6721,E,0.04,0.00,120715,,*0A
$GPGGA,151138.00,4836.10070,N,00948.67141,E,1,09,1.06,682.7,M,47.7,M,,*5D
$GPGGA,151140,4836.1013,N,00948.6721,E,1,10,1.2,679.1,M,47.7,M,,*40
$PGRMZ,2227.1,f,2*30
$PITV5,0.0,360.0,1.031,0.00,0,0.40*32
$GPGSA,A,3,29,22,26,27,20,18,31,21,16,,,,1.77,1.06,1.42*04
$PFLAU,0,1,1,1,0,,0,,,*4F
$PITV3,-13.0,-3.7,259.4,2.99,1.01*14
$PGRMZ,2096,F,2*07
$PITV4,0.06,0.67,-0.33,626.9,628.5,628.7*3C
$PITV3,-13.1,-3.7,259.4,2.91,1.01*1D
$PITV4,0.06,0.66,-0.34,627.1,628.9,628.7*3F
$PITV3,-13.0,-3.6,259.3,2.87,1.01*1D
$PITV4,0.03,0.64,-0.36,626.9,628.4,628.7*3E
$PITV3,-13.1,-3.7,259.4,2.88,1.01*15
$PITV4,-0.01,0.59,-0.41,627.0,628.5,628.6*17
$GPRMC,151141.000,A,4836.1013,N,00948.6721,E,0.02,0.00,120715,,*0D
$GPGGA,151141,4836.1013,N,00948.6721,E,1,10,1.2,679.3,M,47.7,M,,*43
$PGRMZ,2227.1,f,2*30
$PITV5,0.0,360.0,1.031,0.00,0,0.40*32
$GPRMC,151139.00,A,4836.10073,N,00948.67145,E,0.128,,120715,,,A*7D
$GPGGA,151139.00,4836.10073,N,00948.67145,E,1,09,1.06,682.6,M,47.7,M,,*5A
$GPGSA,A,3,29,22,26,27,20,18,31,21,16,,,,1.77,1.06,1.42*04
$PITV3,-13.1,-3.7,259.4,3.02,1.01*16
$PITV4,-0.04,0.56,-0.44,626.9,628.4,628.6*11
$PFLAU,0,1,1,1,0,,0,,,*4F
$PGRMZ,2093,F,2*02
$PITV3,-13.0,-3.6,259.3,3.04,1.01*17
$PITV4,-0.04,0.57,-0.43,627.0,628.5,628.7*1F
$PITV3,-13.0,-3.5,259.3,3.11,1.01*10
$PITV4,-0.01,0.59,-0.41,627.0,628.8,628.7*1B
$PITV3,-13.0,-3.6,259.4,3.06,1.01*12
$PITV4,0.03,0.63,-0.37,626.9,628.6,628.7*3A
$GPRMC,151140.00,A,4836.10072,N,00948.67146,E,0.108,,120715,,,A*73
$GPRMC,151142.000,A,4836.1013,N,00948.6721,E,0.02,0.00,120715,,*0E
$GPGGA,151140.00,4836.10072,N,00948.67146,E,1,09,1.06,682.5,M,47.7,M,,*55
$GPGGA,151142,4836.1013,N,00948.6721,E,1,10,1.2,679.5,M,47.7,M,,*46
$PGRMZ,2227.6,f,2*37
$GPGSA,A,3,29,22,26,27,20,18,31,21,16,,,,1.77,1.06,1.42*04
$PITV5,0.0,360.0,1.031,0.00,0,0.40*32
$PFLAU,0,1,1,1,0,,0,,,*4F
$PGRMZ,2093,F,2*02
$PITV3,-13.1,-3.7,259.3,2.98,1.01*13
$PITV4,0.03,0.64,-0.36,627.0,628.7,628.7*35
$PITV3,-13.1,-3.7,259.3,2.93,1.01*18
$PITV4,0.01,0.62,-0.38,626.9,628.5,628.7*35
$PITV3,-13.1,-3.8,259.4,2.97,1.01*14
$PITV4,-0.01,0.60,-0.40,627.1,628.8,628.7*11
$PITV3,-13.1,-3.8,259.4,2.94,1.01*17
$PITV4,-0.02,0.58,-0.42,626.9,628.5,628.6*1E
$GPRMC,151143.000,A,4836.1013,N,00948.6722,E,0.06,0.00,120715,,*08
$GPGGA,151143,4836.1013,N,00948.6722,E,1,10,1.2,679.8,M,47.7,M,,*49
$PGRMZ,2228.0,f,2*3E
$PITV5,0.0,360.0,1.031,0.00,0,0.40*32
$GPRMC,151141.00,A,4836.10070,N,00948.67145,E,0.077,,120715,,,A*7A
$GPGGA,151141.00,4836.10070,N,00948.67145,E,1,09,1.06,682.4,M,47.7,M,,*54
$GPGSA,A,3,29,22,26,27,20,18,31,21,16,,,,1.77,1.06,1.42*04
$PITV3,-13.1,-3.7,259.3,2.88,1.01*12
$PITV4,-0.04,0.57,-0.43,626.9,628.3,628.6*10
$PFLAU,0,1,1,1,0,,0,,,*4F
$PGRMZ,2093,F,2*02
$PITV3,-13.0,-3.6,259.3,2.90,1.01*1B
$PITV4,-0.06,0.55,-0.45,627.0,628.5,628.6*18
$PITV3,-13.0,-3.6,259.3,2.92,1.01*19
$PITV4,-0.06,0.54,-0.46,627.2,628.8,628.6*15
$PITV3,-13.0,-3.6,259.3,2.94,1.01*1F
$PITV4,-0.05,0.55,-0.45,626.8,628.4,628.6*13
$GPRMC,151142.00,A,4836.10070,N,00948.67143,E,0.080,,120715,,,A*77
$GPRMC,151144.000,A,4836.1013,N,00948.6722,E,0.10,0.00,120715,,*08
$GPGGA,151142.00,4836.10070,N,00948.67143,E,1,10,1.06,682.3,M,47.7,M,,*5E
$GPGGA,151144,4836.1013,N,00948.6722,E,1,10,1.2,679.9,M,47.7,M,,*4F
$PGRMZ,2228.6,f,2*38
$PITV5,0.0,360.0,1.031,0.00,0,0.40*32
$GPGSA,A,3,29,19,22,26,27,20,18,31,21,16,,,1.77,1.06,1.42*0C
$PFLAU,0,1,1,1,0,,0,,,*4F
$PGRMZ,2093,F,2*02
$PITV3,-12.9,-3.4,259.3,2.90,1.01*11
$PITV4,-0.03,0.57,-0.43,627.0,628.5,628.6*19
$PITV3,-12.9,-3.4,259.3,2.98,1.01*19
$PITV4,-0.01,0.59,-0.41,627.0,628.6,628.6*14
$PITV3,-13.0,-3.5,259.3,2.91,1.01*19
$PITV4,0.00,0.61,-0.39,627.0,628.7,628.6*3D
$PITV3,-13.0,-3.6,259.3,2.83,1.01*19
$PITV4,0.00,0.61,-0.39,626.9,628.7,628.6*35
$GPRMC,151145.000,A,4836.1013,N,00948.6723,E,0.04,0.00,120715,,*0D
$GPGGA,151145,4836.1013,N,00948.6723,E,1,10,1.2,679.9,M,47.7,M,,*4F
$PGRMZ,2229.3,f,2*3C
$PITV5,0.0,360.0,1.031,0.00,0,0.40*32
$GPRMC,151143.00,A,4836.10070,N,00948.67140,E,0.140,,120715,,,A*78
$GPGGA,151143.00,4836.10070,N,00948.67140,E,1,10,1.06,682.2,M,47.7,M,,*5D
$GPGSA,A,3,29,19,22,26,27,20,18,31,21,16,,,1.77,1.06,1.42*0C
$PITV3,-13.0,-3.5,259.3,2.94,1.01*1C
$PITV4,-0.01,0.60,-0.40,626.9,628.5,628.6*14
$PFLAU,0,1,1,1,0,,0,,,*4F
$PGRMZ,2089,F,2*09
$PITV3,-13.0,-3.5,259.3,2.88,1.01*11
$PITV4,0.01,0.61,-0.39,627.0,628.6,628.6*3D
$PITV3,-13.0,-3.6,259.3,2.88,1.01*12
$PITV4,0.00,0.61,-0.39,626.9,628.4,628.6*36
$PITV3,-13.0,-3.6,259.3,2.86,1.01*1C
$PITV4,-0.02,0.59,-0.41,626.9,628.3,628.6*1A
$GPRMC,151144.00,A,4836.10067,N,00948.67138,E,0.012,,120715,,,A*70
$GPRMC,151146.000,A,4836.1013,N,00948.6724,E,0.02,0.00,120715,,*0F
$GPGGA,151146,4836.1013,N,00948.6724,E,1,10,1.2,679.8,M,47.7,M,,*4A
$PGRMZ,2229.8,f,2*37
$GPGGA,151144.00,4836.10067,N,00948.67138,E,1,10,0.91,682.3,M,47.7,M,,*5D
$PITV5,0.0,360.0,1.031,0.00,0,0.40*32
$GPGSA,A,3,29,19,22,26,27,20,18,31,21,16,,,1.44,0.91,1.12*06
$PFLAU,0,1,1,1,0,,0,,,*4F
$PITV3,-13.0,-3.5,259.2,2.86,1.01*1E
$PGRMZ,2093,F,2*02
$PITV4,-0.05,0.56,-0.44,627.0,628.6,628.6*1A
$PITV3,-13.0,-3.5,259.2,2.88,1.01*10
$PITV4,-0.06,0.55,-0.45,627.0,628.8,628.5*16
$PITV3,-12.9,-3.4,259.2,2.85,1.01*14
$PITV4,-0.05,0.56,-0.44,626.9,628.3,628.6*17
$PITV3,-12.9,-3.4,259.2,2.85,1.01*14
$PITV4,-0.04,0.57,-0.43,627.0,628.6,628.6*1D
$GPRMC,151145.00,A,4836.10066,N,00948.67140,E,0.079,,120715,,,A*72
$GPGGA,151145.00,4836.10066,N,00948.67140,E,1,10,0.91,682.3,M,47.7,M,,*52
$GPGSA,A,3,29,19,22,26,27,20,18,31,21,16,,,1.44,0.91,1.12*06
$GPRMC,151147.000,A,4836.1013,N,00948.6724,E,0.10,0.00,120715,,*0D
$PFLAU,0,1,1,1,0,,0,,,*4F
$GPGGA,151147,4836.1013,N,00948.6724,E,1,10,1.2,679.7,M,47.7,M,,*44
$PGRMZ,2230.1,f,2*36
$PITV5,0.0,360.0,1.031,0.00,0,0.40*32
$PGRMZ,2096,F,2*07
$PITV3,-12.9,-3.4,259.2,2.89,1.01*18
$PITV4,-0.02,0.58,-0.42,627.0,628.8,628.5*18
$PITV3,-12.9,-3.4,259.2,2.85,1.01*14
$PITV4,-0.02,0.59,-0.41,627.0,628.7,628.5*15
$PITV3,-13.0,-3.5,259.2,2.82,1.01*1A
$PITV4,-0.02,0.59,-0.41,627.1,628.7,628.5*14
$PITV3,-13.0,-3.5,259.2,2.80,1.01*18
$PITV4,-0.01,0.59,-0.41,626.8,628.2,628.5*1A
$GPRMC,151148.000,A,4836.1013,N,00948.6723,E,0.04,0.00,120715,,*00
$GPRMC,151146.00,A,4836.10066,N,00948.67143,E,0.113,,120715,,,A*7F
$GPGGA,151148,4836.1013,N,00948.6723,E,1,10,1.2,679.6,M,47.7,M,,*4D
$PGRMZ,2230.2,f,2*35
$PITV5,0.0,360.0,1.031,0.00,0,0.40*32
$GPGGA,151146.00,4836.10066,N,00948.67143,E,1,10,0.91,682.1,M,47.7,M,,*50
$GPGSA,A,3,29,19,22,26,27,20,18,31,21,16,,,1.44,0.91,1.12*06
$PFLAU,0,1,1,1,0,,0,,,*4F
$PITV3,-13.0,-3.5,259.2,2.80,1.01*18
$PITV4,-0.01,0.59,-0.41,627.0,628.7,628.5*16
$PGRMZ,2093,F,2*02
$PITV3,-13.1,-3.6,259.3,2.87,1.01*1C
$PITV4,0.00,0.61,-0.39,626.7,627.9,628.6*3A
$PITV3,-13.1,-3.7,259.3,2.77,1.01*12
$PITV4,0.01,0.62,-0.38,626.9,628.3,628.5*31
$PITV3,-13.0,-3.6,259.3,2.82,1.01*18
$PITV4,0.00,0.61,-0.39,627.1,628.8,628.5*30
$GPRMC,151147.00,A,4836.10064,N,00948.67144,E,0.041,,120715,,,A*7D
$GPRMC,151149.000,A,4836.1013,N,00948.6724,E,0.16,0.00,120715,,*05
$GPGGA,151149,4836.1013,N,00948.6724,E,1,10,1.2,679.5,M,47.7,M,,*48
$PGRMZ,2230.3,f,2*34
$PITV5,0.0,360.0,1.031,0.00,0,0.40*32
$GPGGA,151147.00,4836.10064,N,00948.67144,E,1,10,0.91,682.2,M,47.7,M,,*57
$GPGSA,A,3,29,19,22,26,27,20,18,31,21,16,,,1.44,0.91,1.12*06
$PFLAU,0,1,1,1,0,,0,,,*4F
$PITV3,-13.1,-3.6,259.3,2.87,1.01*1C
$PGRMZ,2093,F,2*02
$PITV4,0.00,0.61,-0.39,627.0,628.5,628.6*3F
$PITV3,-13.1,-3.7,259.3,2.82,1.01*18
$PITV4,0.01,0.62,-0.38,627.0,628.8,628.6*31
$PITV3,-13.1,-3.7,259.3,2.84,1.01*1E
$PITV4,0.01,0.61,-0.39,627.0,628.6,628.6*3D
$PITV3,-13.1,-3.7,259.3,2.85,1.01*1F
$PITV4,0.02,0.62,-0.38,627.0,628.5,628.6*3F
$GPRMC,151148.00,A,4836.10066,N,00948.67144,E,0.085,,120715,,,A*78
$GPGGA,151148.00,4836.10066,N,00948.67144,E,1,10,0.91,682.1,M,47.7,M,,*59
$GPGSA,A,3,29,19,22,26,27,20,18,31,21,16,,,1.44,0.91,1.12*06
$GPRMC,151150.000,A,4836.1013,N,00948.6723,E,0.04,0.00,120715,,*09
$GPGGA,151150,4836.1013,N,00948.6723,E,1,10,1.2,679.4,M,47.7,M,,*46
$PGRMZ,2230.2,f,2*35
$PFLAU,0,1,1,1,0,,0,,,*4F
$PITV5,0.0,360.0,1.031,0.00,0,0.40*32
$PGRMZ,2093,F,2*02
$PITV3,-13.0,-3.7,259.3,2.88,1.01*13
$PITV4,0.04,0.64,-0.36,626.9,628.6,628.6*3A
$PITV3,-13.0,-3.6,259.2,2.93,1.01*19
$PITV4,0.05,0.65,-0.35,626.8,628.4,628.6*3A
$PITV3,-13.0,-3.6,259.2,2.99,1.01*13
$PITV4,0.04,0.65,-0.35,626.9,628.5,628.6*3B
$PITV3,-13.0,-3.6,259.2,2.91,1.01*1B
$PITV4,0.04,0.65,-0.35,627.2,629.1,628.6*34
$GPRMC,151151.000,A,4836.1013,N,00948.6724,E,0.06,0.00,120715,,*0D
$GPRMC,151149.00,A,4836.10066,N,00948.67145,E,0.107,,120715,,,A*73
$GPGGA,151151,4836.1013,N,00948.6724,E,1,10,1.2,679.5,M,47.7,M,,*41
$PGRMZ,2229.9,f,2*36
$PITV5,0.0,360.0,1.031,0.00,0,0.40*32
$GPGGA,151149.00,4836.10066,N,00948.67145,E,1,10,0.91,682.2,M,47.7,M,,*5A
$GPGSA,A,3,29,19,22,26,27,20,18,31,21,16,,,1.44,0.91,1.12*06
$PFLAU,0,1,1,1,0,,0,,,*4F
$PITV3,-13.0,-3.6,259.2,2.93,1.01*19
$PITV4,0.04,0.65,-0.35,626.9,628.6,628.6*38
$PGRMZ,2093,F,2*02
$PITV3,-13.0,-3.6,259.2,2.93,1.01*19
$PITV4,0.04,0.65,-0.35,626.9,628.6,628.6*38
$PITV3,-12.8,-3.4,259.1,2.89,1.01*1A
$PITV4,0.03,0.64,-0.36,627.0,628.6,628.6*35
$PITV3,-12.9,-3.5,259.1,2.85,1.01*16
$PITV4,0.01,0.61,-0.39,626.9,628.4,628.6*37
$GPRMC,151150.00,A,4836.10064,N,00948.67146,E,0.083,,120715,,,A*77
$GPGGA,151150.00,4836.10064,N,00948.67146,E,1,10,0.91,682.2,M,47.7,M,,*53
$GPRMC,151152.000,A,4836.1013,N,00948.6724,E,0.04,0.00,120715,,*0C
$GPGSA,A,3,29,19,22,26,27,20,18,31,21,16,,,1.44,0.91,1.12*06
$GPGGA,151152,4836.1013,N,00948.6724,E,1,10,1.2,679.5,M,47.7,M,,*42
$PGRMZ,2229.7,f,2*38
$PITV5,0.0,360.0,1.031,0.00,0,0.40*32
$PFLAU,0,1,1,1,0,,0,,,*4F
$PGRMZ,2093,F,2*02
$PITV3,-12.9,-3.6,259.2,2.92,1.01*10
$PITV4,-0.01,0.59,-0.41,627.0,628.5,628.6*17
$PITV3,-13.0,-3.7,259.2,2.92,1.01*19
$PITV4,-0.01,0.60,-0.40,627.0,628.7,628.6*1E
$PITV3,-13.0,-3.7,259.2,2.89,1.01*13
$PITV4,-0.00,0.60,-0.40,627.1,628.7,628.6*1E
$PITV3,-13.0,-3.7,259.3,2.97,1.01*1D
$PITV4,0.02,0.63,-0.38,627.1,628.7,628.7*3C
$GPRMC,151153.000,A,4836.1011,N,00948.6724,E,0.14,0.00,120715,,*0E
$GPRMC,151151.00,A,4836.10062,N,00948.67143,E,0.140,,120715,,,A*7B
$GPGGA,151153,4836.1011,N,00948.6724,E,1,10,1.2,679.7,M,47.7,M,,*43
$PGRMZ,2229.7,f,2*38
$PITV5,0.0,360.0,1.031,0.00,0,0.40*32
$GPGGA,151151.00,4836.10062,N,00948.67143,E,1,10,0.91,682.3,M,47.7,M,,*50
$GPGSA,A,3,29,19,22,26,27,20,18,31,21,16,,,1.44,0.91,1.12*06
$PFLAU,0,1,1,1,0,,0,,,*4F
$PITV3,-13.0,-3.8,259.3,3.02,1.01*1F
$PITV4,0.04,0.64,-0.36,627.1,628.8,628.7*3C
$PGRMZ,2093,F,2*02
$PITV3,-13.0,-3.6,259.2,3.02,1.01*10
$PITV4,0.06,0.67,-0.33,627.1,628.8,628.7*38
$PITV3,-13.0,-3.6,259.2,3.02,1.01*10
$PITV4,0.08,0.68,-0.32,627.1,628.9,628.7*39
$PFLAS,A,12.2,OFF,INT*0A
$PITV3,-13.0,-3.7,259.2,3.03,1.01*10
$PITV4,0.07,0.68,-0.32,626.9,628.4,628.7*32
$GPRMC,151152.00,A,4836.10060,N,00948.67138,E,0.068,,120715,,,A*7D
$GPGGA,151152.00,4836.10060,N,00948.67138,E,1,10,0.91,682.4,M,47.7,M,,*5A
$GPGSA,A,3,29,19,22,26,27,20,18,31,21,16,,,1.44,0.91,1.12*06
$GPRMC,151154.000,A,4836.1011,N,00948.6724,E,0.04,0.00,120715,,*08
$GPGGA,151154,4836.1011,N,00948.6724,E,1,10,1.2,680.0,M,47.7,M,,*45
$PGRMZ,2229.7,f,2*38
$PITV5,0.0,360.0,1.031,0.00,0,0.40*32
$PFLAU,0,1,1,1,0,,0,,,*4F
$PGRMZ,2093,F,2*02
$PITV3,-13.0,-3.6,259.1,2.96,1.01*1F
$PITV4,0.04,0.65,-0.35,627.0,628.5,628.7*32
$PITV3,-12.9,-3.6,259.1,2.85,1.01*15
$PITV4,-0.00,0.60,-0.40,627.0,628.7,628.6*1F
$PITV3,-13.0,-3.7,259.2,2.95,1.01*1E
$PITV4,-0.04,0.56,-0.44,627.1,628.6,628.6*1A
$PITV3,-12.9,-3.5,259.1,2.99,1.01*1B
$PITV4,-0.04,0.57,-0.43,627.0,628.7,628.7*1D
$GPRMC,151155.000,A,4836.1011,N,00948.6724,E,0.06,0.00,120715,,*0B
$GPRMC,151153.00,A,4836.10054,N,00948.67138,E,0.131,,120715,,,A*76
$GPGGA,151155,4836.1011,N,00948.6724,E,1,10,1.2,680.3,M,47.7,M,,*47
$PGRMZ,2230.1,f,2*36
$PITV5,0.0,360.0,1.031,0.00,0,0.40*32
$GPGGA,151153.00,4836.10054,N,00948.67138,E,1,10,0.91,682.7,M,47.7,M,,*5F
$GPGSA,A,3,29,19,22,26,27,20,18,31,21,16,,,1.44,0.91,1.12*06
$PFLAU,0,1,1,1,0,,0,,,*4F
$PITV3,-12.9,-3.5,259.1,3.04,1.01*1E
$PITV4,-0.01,0.59,-0.41,626.9,628.2,628.7*19
$PGRMZ,2096,F,2*07
$PITV3,-13.0,-3.6,259.2,3.08,1.01*1A
$PITV4,0.02,0.63,-0.37,627.1,628.9,628.7*3D
$PITV3,-12.9,-3.5,259.1,2.95,1.01*17
$PITV4,0.05,0.66,-0.34,626.9,628.3,628.7*3F
$PITV3,-12.8,-3.5,259.0,2.89,1.01*1A
